name,latitude,longitude
"A Coruña","43.37135","-8.396"
"A dos Cunhados","39.15237","-9.2972"
"A Estrada","42.68911","-8.48842"
"A Pobra do Caramiñal","42.60295","-8.93824"
"Aabenraa","55.04434","9.41741"
"Aachen","50.77664","6.08342"
"Aadorf","47.49204","8.90099"
"Aalborg","57.048","9.9187"
"Aalburg","51.75482","5.13156"
"Aalen","48.83777","10.0933"
"Aalsmeer","52.25917","4.75972"
"Aalst","50.93604","4.0355"
"Aalten","51.925","6.58056"
"Aalter","51.09017","3.44693"
"Aarau","47.39254","8.04422"
"Aarburg","47.32067","7.89986"
"Aarle-Rixtel","51.50976","5.63839"
"Aars","56.80399","9.51441"
"Aarschot","50.98715","4.83695"
"Aartselaar","51.13412","4.38678"
"Aasiaat","68.70981","-52.86988"
"Aba","5.10658","7.36667"
"Abadan","38.05415","58.19721"
"Abadiânia","-16.20417","-48.70694"
"Abaeté","-19.16","-45.44583"
"Abaetetuba","-1.71806","-48.8825"
"Abagur","53.7308","87.2526"
"Abak","4.98236","7.78922"
"Abakaliki","6.32485","8.11368"
"Abakan","53.71556","91.42917"
"Abalak","58.12861","68.59444"
"Aban","56.6787","96.0658"
"Abancay","-13.63389","-72.88139"
"Abanilla","38.20537","-1.04153"
"Abano Terme","45.35753","11.78725"
"Abarán","38.20551","-1.39907"
"Abasha","42.20959","42.22111"
"Abashiri","44.02127","144.26971"
"Abasolo","20.44997","-101.53073"
"Abatskoye","56.28748","70.45553"
"Abay","49.63575","72.86164"
"Abaza","52.655","90.09278"
"Abbadia San Salvatore","42.8812","11.6722"
"Abbeville","34.17817","-82.37901"
"Abbey Wood","51.48688","0.10747"
"Abbiategrasso","45.39821","8.91678"
"Abbots Langley","51.70573","-0.41757"
"Abbotsford","49.05798","-122.25257"
"Abbottabad","34.1463","73.21168"
"Abcoude","52.2725","4.96944"
"Abdulino","53.7","53.66667"
"Abdurahmoni Jomí","37.94636","68.80878"
"Abéché","13.82916","20.8324"
"Abegondo","43.21667","-8.28333"
"Abejorral","5.78928","-75.42725"
"Abenberg","49.24282","10.96401"
"Abengourou","6.72972","-3.49639"
"Abensberg","48.81684","11.8498"
"Abeokuta","7.15571","3.34509"
"Abepura","-2.5964","140.6324"
"Abercanaid","51.72361","-3.36611"
"Abercarn","51.64733","-3.13476"
"Abercynon","51.64548","-3.32727"
"Aberdare","51.71438","-3.44918"
"Aberdeen","46.97537","-123.81572"
"Abergavenny","51.82098","-3.01743"
"Abergele","53.28436","-3.5822"
"Aberkenfig","51.54","-3.59556"
"Abertillery","51.72981","-3.13432"
"Abertridwr","51.59583","-3.26833"
"Aberystwyth","52.41548","-4.08292"
"Abha","18.21639","42.50528"
"Abhar","36.1468","49.218"
"Abhayāpuri","26.32255","90.68526"
"Abidjan","5.30966","-4.01266"
"Abiko","35.86667","140.01667"
"Abilene","32.44874","-99.73314"
"Abingdon","36.70983","-81.97735"
"Abington","42.10482","-70.94532"
"Abinsk","44.86803","38.15728"
"Abirāmam","9.4423","78.4399"
"Ablon-sur-Seine","48.72732","2.42686"
"Abnūb","27.2696","31.15105"
"Abobo","5.41613","-4.0159"
"Abocho","7.5677","6.9863"
"Abohar","30.14453","74.19552"
"Aboisso","5.46779","-3.20711"
"Abomey","7.18286","1.99119"
"Abomey-Calavi","6.44852","2.35566"
"Abomsa","9.98333","39.98333"
"Abong Mbang","3.98333","13.18333"
"Abony","47.1899","20.00476"
"Aboso","5.36073","-1.94856"
"Abou el Hassan","36.41657","1.19616"
"Abovyan","40.27368","44.63348"
"Abqaiq","25.93402","49.6688"
"Abra Pampa","-22.72049","-65.69697"
"Abraham’s Bay","22.36667","-72.96667"
"Abraka","5.79023","6.10473"
"Abram","53.50855","-2.59266"
"Abrama","20.85865","72.90648"
"Abrantes","39.46667","-8.2"
"Abraveses","40.68137","-7.92102"
"Abrera","41.51682","1.901"
"Abreu e Lima","-7.91167","-34.90278"
"Abreus","22.27797","-80.56931"
"Abrīsham","32.55613","51.57325"
"Abrud","46.27406","23.06339"
"Absam","47.29572","11.50593"
"Absecon","39.42845","-74.49571"
"Abtsgmünd","48.89503","10.00172"
"Abū al Maţāmīr","30.91018","30.17438"
"Abu Dhabi","24.46667","54.36667"
"Abū Dīs","31.76215","35.26166"
"Abū Ghaush","31.80592","35.1093"
"Abū Ghurayb","33.30563","44.18477"
"Abu Jibeha","11.4562","31.2285"
"Abū Kabīr","30.72508","31.67148"
"Abū Qurqāş","27.9312","30.83841"
"Abū Tīj","27.04411","31.31897"
"Abū Zabad","12.35","29.25"
"Abū ‘Arīsh","16.96887","42.83251"
"Abucay","14.73347","120.53358"
"Abuja","9.05785","7.49508"
"Abuko","13.40417","-16.65583"
"Aburi","5.84802","-0.17449"
"Abuyog","10.747","125.0107"
"Acacías","3.98695","-73.75797"
"Acacoyagua","15.34054","-92.67519"
"Acajete","19.11154","-97.95231"
"Acajutiba","-11.66222","-38.01722"
"Acajutla","13.59278","-89.8275"
"Acala","16.55625","-92.80449"
"Acámbaro","20.03085","-100.72194"
"Acambay","19.95522","-99.84428"
"Acamixtla","18.56512","-99.56599"
"Acanceh","20.81269","-89.45295"
"Acapetahua","15.28189","-92.68987"
"Acaponeta","22.49396","-105.36369"
"Acapulco de Juárez","16.84942","-99.90891"
"Acará","-1.96083","-48.19667"
"Acaraú","-2.88556","-40.12"
"Acarigua","9.55451","-69.19564"
"Acarlar","37.82444","27.74667"
"Acate","37.02318","14.49302"
"Acatenango","14.55451","-90.94368"
"Acatic","20.77995","-102.91056"
"Acatlán de Juárez","20.42262","-103.59051"
"Acatlán de Osorio","18.2025","-98.04864"
"Acatlán de Pérez Figueroa","18.53973","-96.60568"
"Acatzingo","18.98196","-97.78363"
"Acayuca","20.02567","-98.8411"
"Acayucan","17.94979","-94.91386"
"Accokeek","38.66762","-77.02831"
"Accra","5.55602","-0.1969"
"Accrington","53.75379","-2.35863"
"Acerra","40.94477","14.3714"
"Aceuchal","38.64627","-6.48636"
"Achacachi","-16.05","-68.68333"
"Achalpur","21.25665","77.51006"
"Acharnés","38.08333","23.73333"
"Acheng","45.54545","126.97703"
"Achères","48.96115","2.06882"
"Achern","48.63115","8.07607"
"Achhnera","27.17826","77.75674"
"Achí","8.5695","-74.55715"
"Achicourt","50.27429","2.75779"
"Achikulak","44.55167","44.83778"
"Achim","53.01416","9.0263"
"Achinsk","56.2694","90.4993"
"Achit","56.7985","57.8994"
"Achkhoy-Martan","43.18997","45.28373"
"Aci Castello","37.55564","15.14535"
"Aci Catena","37.60614","15.14165"
"Aci Sant'Antonio","37.60499","15.12294"
"Acigné","48.13333","-1.53704"
"Acıgöl","38.55028","34.50917"
"Acilia-Castel Fusano-Ostia Antica","41.76337","12.33078"
"Acıpayam","37.42385","29.34941"
"Acireale","37.60886","15.16577"
"Acırlı","37.45549","41.29499"
"Acocks Green","52.45","-1.81667"
"Acolla","-11.73193","-75.54634"
"Acolman de Netzahualcóyotl","19.63976","-98.90777"
"Aconibe","1.29683","10.93691"
"Acopiara","-6.09528","-39.4525"
"Acoua","-12.72391","45.05819"
"Acoyapa","11.97028","-85.17113"
"Acquaviva","43.94593","12.4185"
"Acquaviva delle Fonti","40.89704","16.8433"
"Acqui Terme","44.67552","8.46934"
"Acre","32.92814","35.07647"
"Acri","39.49624","16.38635"
"Actipan de Morelos","18.96003","-97.79904"
"Acton","34.46999","-118.19674"
"Acton Vale","45.65007","-72.56582"
"Actopan","20.26961","-98.94377"
"Açu","-5.57667","-36.90861"
"Açucena","-19.07306","-42.54639"
"Acuitlapilco","19.27333","-98.23542"
"Acuítzio del Canje","19.49585","-101.33321"
"Acultzingo","18.71894","-97.30367"
"Acushnet","41.68066","-70.90782"
"Acworth","34.06635","-84.67837"
"Ad Dabbah","18.05","30.95"
"Ad Darb","17.72285","42.25261"
"Ad Darbāsīyah","37.07279","40.65199"
"Ad Dasmah","29.365","48.00139"
"Ad Dawādimī","24.50772","44.39237"
"Ad Dawḩah","31.69948","35.18047"
"Ad Dilam","23.99104","47.16181"
"Ad Dilinjāt","30.82796","30.53552"
"Ad Dindar","13.2","34.16667"
"Ad Douiem","14.0012","32.3116"
"Ad Dujayl","33.84667","44.23444"
"Afántou","36.29354","28.16225"
"Afşin","38.24769","36.91399"
"Afyonkarahisar","38.75667","30.54333"
"Afzalgarh","29.3937","78.67393"
"Afzalpur","17.19986","76.36018"
"Aga","14.0965","120.80217"
"Ağaçören","38.87484","33.91674"
"Agadez","16.97333","7.99111"
"Agadir","30.42018","-9.59815"
"Agaete","28.10023","-15.69998"
"Agaie","9.0085","6.31821"
"Agalatovo","60.2195","30.27388"
"Agana Heights Village","13.46559","144.74795"
"Agapovka","53.2973","59.1348"
"Agar","23.71177","76.01571"
"Agara","42.03761","43.82382"
"Agartala","23.83605","91.27939"
"Agăş","46.48333","26.21667"
"Agat Village","13.38855","144.65852"
"Agawam","42.06954","-72.61481"
"Agbabu","6.58862","4.8343"
"Agbor","6.25375","6.1942"
"Agboville","5.92801","-4.21319"
"Ağdam","39.99096","46.92736"
"Ağdaş","40.64699","47.4738"
"Agde","43.31083","3.47583"
"Agdzhabedy","40.05015","47.45937"
"Agen","44.19991","0.62664"
"Agenebode","7.10512","6.69381"
"Ageoshimo","35.97145","139.61382"
"Agerola","40.63771","14.53884"
"Ageyevo","54.15883","36.46927"
"Aghajari","30.7006","49.8315"
"Aghstafa","41.11889","45.45389"
"Aghsu","40.57028","48.40087"
"Agía Paraskeví","38.01667","23.83333"
"Agía Varvára","37.98938","23.66011"
"Agidel’","55.9077","53.9355"
"Agigea","44.08333","28.61667"
"Aginskoye","51.1","114.53"
"Agios Dimitrios","37.93333","23.73333"
"Agios Ioannis Rentis","37.96491","23.66511"
"Agira","37.6558","14.51972"
"Aglayan","8.055","125.13417"
"Agliana","43.90246","11.00531"
"Aglona","56.13274","27.00682"
"Agneaux","49.11905","-1.1061"
"Agnibilékrou","7.13113","-3.20415"
"Agnita","45.96667","24.61667"
"Ago Are","8.5","3.41667"
"Agogo","6.80004","-1.08193"
"Agoo","16.08333","120.1"
"Agoura","34.14306","-118.73787"
"Agoura Hills","34.13639","-118.77453"
"Agra","27.18333","78.01667"
"Agramunt","41.78686","1.09683"
"Agrate Brianza","45.57431","9.34793"
"Agrestina","-8.45806","-35.94472"
"Ağrı","39.71944","43.05139"
"Agriá","39.34078","23.01258"
"Agrigento","37.31065","13.57661"
"Agrínio","38.62139","21.40778"
"Agropoli","40.34923","14.99067"
"Agryz","56.52034","52.99422"
"Agua Blanca Sur","15.25","-87.88333"
"Agua de Dios","4.37648","-74.66995"
"Agua Dulce","18.13909","-94.14527"
"Agua Prieta","31.33071","-109.54876"
"Aguacatán","15.34222","-91.31141"
"Aguachica","8.30844","-73.6166"
"Aguada","18.37939","-67.18824"
"Aguada de Pasajeros","22.3852","-80.84792"
"Aguadas","5.61161","-75.45624"
"Aguadilla","18.42745","-67.15407"
"Aguadulce","8.24183","-80.54609"
"Aguaí","-22.05944","-46.97861"
"Aguas Buenas","18.2569","-66.10294"
"Aguas Verdes","-3.48139","-80.245"
"Aguascalientes","21.88234","-102.28259"
"Aguazul","5.17282","-72.54706"
"Agudos","-22.46917","-48.9875"
"Aguiar da Beira","40.81726","-7.54431"
"Aguié","13.50601","7.77863"
"Aguilar","15.8884","120.2378"
"Aguilar de Campoo","42.79452","-4.25892"
"Aguilares","13.95722","-89.18972"
"Aguililla","18.73742","-102.78934"
"Agüimes","27.90539","-15.44609"
"Aguisan","10.1603","122.8615"
"Agulu","6.10045","7.061"
"Agupit","13.4225","123.32472"
"Agusan","8.49056","124.73722"
"Agustín Codazzi","10.03672","-73.23558"
"Ağva","41.13806","29.85667"
"Ahar","38.4774","47.0699"
"Ahau","-12.5","177.05"
"Ahaus","52.07936","7.01344"
"Ahero","-0.17359","34.9189"
"Ahfir","34.95368","-2.10027"
"Ahiri","19.41386","80.00359"
"Ahlat","38.7489","42.48007"
"Ahlen","51.76338","7.8887"
"Ahlerstedt","53.4","9.45"
"Ahmadnagar","19.09457","74.73843"
"Ahmadpur","18.70622","76.93731"
"Ahmadpur East","29.14269","71.25771"
"Ahmadpur Sial","30.67791","71.74344"
"Ahmedabad","23.02579","72.58727"
"Ahmetli","38.5196","27.93865"
"Ahoada","5.0828","6.64981"
"Ahome","25.91985","-109.1732"
"Ahraura","25.01579","83.03294"
"Ahrensbök","54.00862","10.57434"
"Ahrensburg","53.67515","10.22593"
"Ahuacatlán","21.05405","-104.48398"
"Ahuachapán","13.92139","-89.845"
"Ahualulco de Mercado","20.70137","-103.97461"
"Ahvaz","31.31901","48.6842"
"Ahwa","20.75718","73.68626"
"Ahwatukee Foothills","33.34171","-111.98403"
"Aībak","36.26468","68.01551"
"Aibonito","18.13996","-66.266"
"Aichach","48.45755","11.13413"
"Aidlingen","48.67849","8.89524"
"Aigáleo","37.98333","23.68333"
"Aígio","38.24861","22.08194"
"Aigle","46.3181","6.96457"
"Aigues-Mortes","43.56683","4.19068"
"Aiken","33.56042","-81.71955"
"Aileu","-8.72806","125.56639"
"Ailuk","10.21972","169.97967"
"Aimorés","-19.49583","-41.06389"
"Aïn Arnat","36.18683","5.31347"
"Aïn Beïda","35.79639","7.39278"
"Aïn Beni Mathar","34.0097","-2.03238"
"Aïn Bessem","36.29333","3.67319"
"Aïn Defla","36.26405","1.9679"
"Aïn el Bya","35.80389","-0.30178"
"Aïn Fakroun","35.97108","6.87374"
"Aïn Kercha","35.92472","6.69528"
"Aïn Leuh","33.28984","-5.33863"
"Aïn Oussera","35.45139","2.90583"
"Aïn Sefra","32.75","-0.58333"
"Aïn Smara","36.2674","6.50135"
"Ain Sukhna","29.60018","32.31671"
"Aïn Taya","36.79333","3.28694"
"Aïn Temouchent","35.29749","-1.14037"
"Aïn Touta","35.37675","5.90001"
"Ainaro","-8.99241","125.50816"
"Ainring","47.81311","12.94048"
"Aioi","34.80361","134.46806"
"Aioun","16.6614","-9.6149"
"Aipe","3.22222","-75.23667"
"Aiquile","-18.20408","-65.18068"
"Air Force Academy","38.99425","-104.86375"
"Airali","44.8167","7.25157"
"Airdrie","55.86602","-3.98025"
"Aire-sur-la-Lys","50.63871","2.39876"
"Airmont","41.10093","-74.11625"
"Airola","41.05871","14.55924"
"Airoli","19.15096","72.99625"
"Airport West","-37.7247","144.88126"
"Airuk","7.27717","168.8203"
"Airway Heights","47.64461","-117.59327"
"Aiseau","50.41158","4.58671"
"Aistala","23.18","88.58"
"Aitape","-3.13697","142.34913"
"Aiud","46.31006","23.72128"
"Aix-en-Provence","43.5283","5.44973"
"Aix-les-Bains","45.69173","5.90863"
"Aixe-sur-Vienne","45.79862","1.13884"
"Aizawl","23.72894","92.71791"
"Aizenay","46.74004","-1.60834"
"Aizkraukle","56.60477","25.25534"
"Aizpute","56.72108","21.60156"
"Ajā","30.94162","31.29039"
"Ajaccio","41.91886","8.73812"
"Ajacuba","20.0917","-99.12246"
"Ajaigarh","24.89879","80.25921"
"Ajalpan","18.37908","-97.25867"
"Ajaokuta","7.56229","6.65497"
"Ajasse Ipo","8.23333","4.81667"
"Ajax","43.85012","-79.03288"
"Ajdabiya","30.75545","20.22625"
"Ajdovščina","45.88601","13.90946"
"Ajijic","20.30325","-103.25476"
"Ajjampur","13.72794","76.0068"
"Ajka","47.10196","17.55892"
"Ajman","25.41111","55.43504"
"Ajmer","26.4521","74.63867"
"Ajnāla","31.84473","74.76295"
"Ajodhya","26.79909","82.2047"
"Ajra","16.11601","74.21097"
"Ajuchitlán","20.70713","-100.02008"
"Ajuchitlán del Progreso","18.15189","-100.48353"
"Ajuterique","14.38333","-87.7"
"Ajuy","11.1724","123.0197"
"Ak-Dovurak","51.18333","90.6"
"Ak-Suu","42.49948","78.52702"
"Akaa","61.16667","23.86667"
"Akabira","43.55139","142.05306"
"Akademgorodok","54.8523","83.106"
"Akademicheskoe","60.01375","30.39471"
"Akālgarh","29.82074","75.89078"
"Akalkot","17.52532","76.20611"
"Akalla","59.41465","17.91398"
"Akaltara","22.02463","82.42641"
"Akankpa","5.1264","8.1898"
"Akarsu","37.22616","41.05138"
"Akashi","34.65524","135.00687"
"Akbarābād","29.2464","52.7793"
"Akbarpur","26.38371","79.94926"
"Akbou","36.4575","4.53494"
"Akçaabat","41.02121","39.57146"
"Akçadağ","38.33899","37.97021"
"Akçakale","36.71111","38.9475"
"Akçakoca","41.08663","31.11623"
"Akdağmadeni","39.66028","35.88361"
"Akdepe","42.05513","59.37877"
"Ake-Eze","5.91677","7.67615"
"Aken","51.85274","12.04461"
"Aketi","2.73877","23.78326"
"Akhalk’alak’i","41.40514","43.48629"
"Akhaltsikhe","41.63901","42.98262"
"Akhisar","38.91852","27.84006"
"Akhmet’a","42.03111","45.2075"
"Akhmīm","26.56217","31.74503"
"Akhnūr","32.86667","74.73333"
"Akhtubinsk","48.27955","46.17217"
"Akhty","41.45968","47.73123"
"Akhtyrskiy","44.8546","38.3031"
"Akhuryan","40.78003","43.90027"
"Aki","33.5","133.9"
"Akil","20.26547","-89.34787"
"Akim Oda","5.92665","-0.98577"
"Akim Swedru","5.8938","-1.01636"
"Akita","39.71667","140.11667"
"Akivīdu","16.58225","81.38112"
"Akjoujt","19.74657","-14.38531"
"Akkarampalle","13.65","79.42"
"Akko","10.28899","10.9732"
"Akkol’","53.29617","69.59997"
"Akkuş","40.79306","37.01639"
"Aklera","24.41288","76.56719"
"Aknīste","56.16152","25.74783"
"Akobo","7.79111","33.00444"
"Akodia","23.38027","76.59875"
"Akola","20.70957","76.9981"
"Akom II","2.78333","10.56667"
"Akonolinga","3.76667","12.25"
"Akora","34.00337","72.12561"
"Akot","21.0963","77.0588"
"Akouda","35.8691","10.5653"
"Akoupé","6.38423","-3.88759"
"Akranes","64.32179","-22.0749"
"Akron","41.08144","-81.51901"
"Akropong","5.97462","-0.08542"
"Aksakovo","43.25615","27.82105"
"Aksaray","38.37255","34.02537"
"Aksay","43.37254","46.44497"
"Akşehir","38.3575","31.41639"
"Akseki","37.04861","31.79"
"Aksu","40.08964","38.03467"
"Aksuat","48.71667","83.7"
"Aktanysh","55.72156","54.08293"
"Aktas","49.77952","72.96128"
"Aktau","48.03333","72.83333"
"Aktobe","50.27969","57.20718"
"Aktyubinskiy","54.81372","52.80559"
"Aku","6.70902","7.31826"
"Akune","32.01667","130.2"
"Akure","7.25256","5.19312"
"Akureyri","65.68353","-18.0878"
"Akwanga","8.91077","8.40655"
"Akwatia","6.04024","-0.80876"
"Akyazı","40.685","30.62222"
"Akyurt","40.13512","33.08614"
"Ak’ordat","15.54798","37.88291"
"Ak”yarAkjar","",""
"Al Aaroui","35.0109","-3.00938"
"Al Abyār","32.19","20.59653"
"Al Aḩmadī","29.07694","48.08389"
"Al Ain","24.19167","55.76056"
"Al Ajaylat","32.75718","12.37633"
"Al Arţāwīyah","26.50387","45.34813"
"Al Awjām","26.56324","49.94331"
"Al Azraq ash Shamālī","31.88209","36.83017"
"Al Bāb","36.37051","37.5157"
"Al Badārī","26.99257","31.41554"
"Al Bahah","20.01288","41.46767"
"Al Bājūr","30.43046","31.03679"
"Al Balyanā","26.23568","32.00347"
"Al Bardīyah","31.75598","25.0866"
"Al Başrah al Qadīmah","30.50316","47.81507"
"Al Baţţālīyah","25.43333","49.63333"
"Al Bawīţī","28.34919","28.86591"
"Al Bayda","13.98523","45.57272"
"Al Bayḑā’","32.76272","21.75506"
"Al Bīrah","31.91001","35.21645"
"Al Bukayrīyah","26.13915","43.65782"
"Al Burayj","31.43944","34.40306"
"Al Buraymī","24.25088","55.79312"
"Al Burayqah","30.40624","19.57386"
"Al Faḩāḩīl","29.0825","48.13028"
"Al Fallūjah","33.34913","43.78599"
"Al Farwānīyah","29.2775","47.95861"
"Al Fashn","28.82431","30.89948"
"Al Fāw","29.97421","48.47309"
"Al Fayyūm","29.30995","30.8418"
"Al Finţās","29.17389","48.12111"
"Al Fqih Ben Çalah","32.50213","-6.68771"
"Al Fujayrah","25.11641","56.34141"
"Al Fukhkhārī","31.29278","34.33061"
"Al Fūlah","11.73292","28.35786"
"Al Fuwayliq","26.4436","43.25164"
"Al Ghanţū","34.82202","36.69613"
"Al Ghayz̧ah","16.20787","52.17605"
"Al Hadā","21.36753","40.28694"
"Al Ḩadd","26.24556","50.65417"
"Al Ḩamrā’","32.44017","36.15265"
"Al Ḩāmūl","31.31146","31.14766"
"Al Ḩarāk","32.74932","36.30994"
"Al Hārithah","30.58481","47.76114"
"Al Hasaheisa","14.75264","33.29836"
"Al Ḩasakah","36.50237","40.74772"
"Al Ḩawāmidīyah","29.9","31.25"
"Al Ḩawātah","13.41667","34.63333"
"Al Ḩayy","32.17419","46.04345"
"Al Ḩazm","16.16406","44.77692"
"Al Hilāliyya","14.9398","33.234"
"Al Ḩillah","32.46367","44.41963"
"Al Hindīyah","32.54671","44.22765"
"Al Hoceïma","35.25165","-3.93723"
"Al Ḩudaydah","14.79781","42.95452"
"Al Hufūf","25.36467","49.58764"
"Al Ibrāhīmīyah","30.71877","31.56299"
"Al Jabīn","14.70389","43.59917"
"Al Jadīd","27.05","14.4"
"Al Jafr","25.37736","49.72154"
"Al Jahrā’","29.3375","47.65806"
"Al Jammālīyah","31.18065","31.86497"
"Al Jarādīyah","16.57946","42.9124"
"Al Jawf","24.1989","23.29093"
"Al Jubayhah","32.01071","35.89802"
"Al Jubayl","25.4","49.65"
"Al Jumūm","21.61694","39.69806"
"Al Karāmah","31.95439","35.58033"
"Al Kawa","13.7463","32.4996"
"Al Khābūrah","23.97144","57.09313"
"Al Khaḑir","31.69405","35.16685"
"Al Khafjī","28.43905","48.49132"
"Al Khānkah","30.21035","31.36812"
"Al Khārijah","25.45141","30.54635"
"Al Kharj","24.15541","47.33457"
"Al Khawr","25.68389","51.50583"
"Al Khinzīrah","31.05056","35.60606"
"Al Khums","32.64861","14.26191"
"Al Kiremit al ‘Arakiyyīn","14.3476","32.9437"
"Al Kiswah","33.3581","36.2419"
"Al Kittah","32.27685","35.84114"
"Al Kūt","32.5128","45.81817"
"Al Lagowa","11.4","29.13333"
"Al Maḩallah al Kubrá","30.97063","31.1669"
"Al Mahbūlah","29.145","48.13028"
"Al Maḩwīt","15.47007","43.54481"
"Al Majāridah","19.12361","41.91111"
"Al Manāqil","14.2459","32.9891"
"Al Manqaf","29.09611","48.13278"
"Al Manshāh","26.47686","31.8035"
"Al Manşūrah","31.03637","31.38069"
"Al Manzalah","31.15823","31.936"
"Al Marj","32.49257","20.82909"
"Al Markaz","25.4","49.73333"
"Al Marsá","36.87818","10.32466"
"Al Masallamiyya","14.5748","33.3373"
"Al Maţarīyah","31.18287","32.03108"
"Al Matlīn","37.24516","10.05"
"Al Mawşil al Jadīdah","36.33271","43.10555"
"Al Mayādīn","35.01982","40.45154"
"Al Mazār al Janūbī","31.06722","35.69486"
"Al Mijlad","11.03333","27.73333"
"Al Mindak","20.1588","41.28337"
"Al Minyā","28.10988","30.7503"
"Al Miqdādīyah","33.97861","44.93694"
"Al Mishkhāb","31.80437","44.4893"
"Al Mithnab","25.86012","44.22228"
"Al Mubarraz","25.40768","49.59028"
"Al Mughrāqah","31.46587","34.41208"
"Al Muharraq","26.25722","50.61194"
"Al Munayzilah","25.38333","49.66667"
"Al Musayyib","32.77872","44.29005"
"Al Muţayrifī","25.47878","49.55824"
"Al Muwayh","22.43333","41.75829"
"Al Qābil","22.571","58.69472"
"Al Qadarif","14.03493","35.38344"
"Al Qanāţir al Khayrīyah","30.19327","31.13703"
"Al Qanāyāt","30.61927","31.46165"
"Al Qārah","25.41667","49.66667"
"Al Qarārah","31.37389","34.34085"
"Al Qaryatayn","34.22956","37.24066"
"Al Qaţīf","26.56542","50.0089"
"Al Qiţena","14.8648","32.3668"
"Al Qubbah","32.75684","22.24106"
"Al Qunayţirah","33.12595","35.82461"
"Al Qurayn","25.48333","49.6"
"Al Quşayr","34.5078","36.58029"
"Al Qūşīyah","27.4402","30.81841"
"Al Quţayfah","33.73848","36.60071"
"Al Quwayrah","29.80045","35.3116"
"Al Wafrah","28.63917","47.93056"
"Al Wajh","26.24551","36.45249"
"Al Wakrah","25.17151","51.60337"
"Al Wāsiţah","29.33778","31.20556"
"Al Wukayr","25.15107","51.53718"
"Al Yāmūn","32.48563","35.23011"
"Al ‘Alamayn","30.83007","28.95502"
"Al ‘Amārah","31.83561","47.14483"
"Al ‘Ayyāţ","29.61972","31.2575"
"Al ‘Ayzarīyah","31.77078","35.26917"
"Al ‘Azīzīyah","32.53194","13.0175"
"Al ‘Ubaydīyah","31.71697","35.29007"
"Al-Hamdaniya","36.27093","43.37758"
"Al-`Ula","26.60853","37.92316"
"Ala","45.76072","11.00458"
"Alabaster","33.24428","-86.81638"
"Alabat","14.101","122.0125"
"Alabel","6.10179","125.29048"
"Alaca","40.16833","34.8425"
"Alachua","29.75163","-82.42483"
"Alacranes","22.76719","-81.56803"
"Aladağ","37.5485","35.39603"
"Alae","8.42444","124.81278"
"Alafaya","28.5641","-81.2114"
"Alagāpuram","11.88705","78.91758"
"Alaghsas","17.0187","8.0168"
"Alagir","43.04222","44.22222"
"Alagoa Grande","-7.15833","-35.63"
"Alagoa Nova","-7.07083","-35.75833"
"Alagoinha","-6.95","-35.545"
"Alagoinhas","-12.13556","-38.41917"
"Alagón","41.76964","-1.11906"
"Alaior","39.93034","4.14039"
"Alajärvi","63.00027","23.81586"
"Alajuela","10.01625","-84.21163"
"Alajuelita","9.90163","-84.10042"
"Alakurtti","66.9672","30.34905"
"Alamar","23.15794","-82.27837"
"Alameda","37.76521","-122.24164"
"Alaminos","14.06391","121.24649"
"Alamo","37.8502","-122.03218"
"Alamo Heights","29.48495","-98.46585"
"Alamogordo","32.89953","-105.96027"
"Alamosa","37.46945","-105.87002"
"Alampur","15.87987","78.13352"
"Aland","17.56425","76.56854"
"Alandi","18.67756","73.89868"
"Alandur","13.0025","80.20611"
"Alangalang","11.20611","124.84667"
"Alangānallūr","10.04697","78.09033"
"Alangāyam","12.62235","78.75207"
"Alanya","36.54375","31.99982"
"Alapa","8.61667","4.38333"
"Alapayevsk","57.85158","61.69627"
"Alaplı","41.1814","31.38514"
"Alaquàs","39.45568","-0.461"
"Alarobia","-18.96667","47.73333"
"Alaşehir","38.35083","28.51718"
"Alassio","44.00393","8.16713"
"Alatri","41.73187","13.3412"
"Alatyr’","54.8421","46.5813"
"Alausí","-2.20329","-78.84714"
"Alaverdi","41.09766","44.67316"
"Alavus","62.58333","23.61667"
"Alāwalpur","31.43161","75.65614"
"Alba","44.6999","8.0347"
"Alba Adriatica","42.83176","13.9259"
"Alba Iulia","46.06667","23.58333"
"Alba Posse","-27.56978","-54.68262"
"Albacete","38.99424","-1.85643"
"Albaida","38.83798","-0.51721"
"Albal","39.4","-0.41667"
"Albania","11.16099","-72.59238"
"Albano Laziale","41.72748","12.659"
"Albano Sant'Alessandro","45.68762","9.76651"
"Albany","44.63651","-123.10593"
"Albany Park","41.96836","-87.72339"
"Albardón","-31.43722","-68.52556"
"Albatera","38.17902","-0.87059"
"Albavilla","45.80038","9.18504"
"Albbruck","47.59077","8.12954"
"Albemarle","35.35014","-80.20006"
"Albenga","44.04997","8.21829"
"Albergaria-a-Velha","40.69318","-8.47994"
"Alberic","39.11667","-0.51667"
"Alberobello","40.78448","17.23618"
"Albert","50.00091","2.65096"
"Albert Lea","43.64801","-93.36827"
"Albert Park","",""
"Albertina","-34.20544","21.58001"
"Albertirsa","47.24315","19.61686"
"Alberton","-26.26786","28.12225"
"Albertslund","55.65691","12.36381"
"Albertson","40.77343","-73.64318"
"Albertville","45.23774","-93.65441"
"Albeşti","46.23333","24.85"
"Albeşti-Paleologu","44.95","26.21667"
"Albeştii Pământeni","45.21667","24.66667"
"Albi","43.9298","2.148"
"Albiate","45.65537","9.25035"
"Albignasego","45.34705","11.86781"
"Albina","5.49788","-54.05522"
"Albino","45.76444","9.79904"
"Albion","43.24645","-78.19363"
"Albion Park Rail","-34.56634","150.79177"
"Albisola Marina","44.33079","8.5096"
"Albisola Superiore","44.33889","8.51046"
"Albizzate","45.72698","8.80312"
"Alblasserdam","51.86583","4.66111"
"Albolote","37.23088","-3.6551"
"Alborada Jaltenco","19.66194","-99.06889"
"Alboraya","39.5","-0.35"
"Albox","37.38856","-2.14949"
"Albstadt","48.21644","9.02596"
"Além Paraíba","-21.88778","-42.70444"
"Alès","44.12489","4.08082"
"Alībāg","18.64813","72.87579"
"Alīganj","27.49358","79.17127"
"Alīgarh","27.88145","78.07464"
"Alīgūdarz","33.404","49.69179"
"Alīpur","29.38242","70.91106"
"Alīpur Duār","26.4835","89.52286"
"Almè","45.73883","9.61558"
"Almenno San Salvatore","45.74971","9.59699"
"Almere Stad","52.37025","5.21413"
"Almería","36.83814","-2.45974"
"Almese-Rivera","45.11915","7.40111"
"Almirante","9.30091","-82.4018"
"Almirante Tamandaré","-25.32472","-49.31"
"Almodôvar","37.51279","-8.06008"
"Almodóvar del Campo","38.70936","-4.17908"
"Almodóvar del Río","37.8107","-5.02037"
"Almolonga","14.81591","-91.49464"
"Almoloya del Río","19.16046","-99.4874"
"Almonte","37.2647","-6.51667"
"Almora","29.59713","79.65911"
"Almoradí","38.10879","-0.79197"
"Almozara","41.66124","-0.90169"
"Almuñécar","36.73393","-3.69072"
"Almus","40.37583","36.90444"
"Almussafes","39.28333","-0.41667"
"Almyrós","39.18222","22.75944"
"Alnashi","56.18738","52.47919"
"Alnāvar","15.42727","74.74111"
"Alness","57.69596","-4.2551"
"Alnwick","55.41318","-1.70563"
"Alo","-14.31096","-178.11094"
"Alofi","-19.05451","-169.91768"
"Aloha","45.49428","-122.86705"
"Aloja","57.76723","24.87743"
"Alondra Park","33.88946","-118.33091"
"Along","28.16951","94.8006"
"Alor Gajah","2.3804","102.2089"
"Alor Setar","6.12104","100.36014"
"Alora","36.82358","-4.70575"
"Alot","23.76336","75.55662"
"Alotau","-10.31509","150.45742"
"Alotenango","14.48028","-90.8075"
"Alovera","40.59368","-3.24529"
"Alpatovo","43.7028","45.24154"
"Alpedrete","40.65889","-4.02512"
"Alpen","51.58333","6.51667"
"Alpena","45.06168","-83.43275"
"Alpendurada","41.08944","-8.24643"
"Alpharetta","34.07538","-84.29409"
"Alphen aan den Rijn","52.12917","4.65546"
"Alpiarça","39.25712","-8.58187"
"Alpicat","41.6657","0.55564"
"Alpignano","45.09346","7.52392"
"Alpine","40.45328","-111.77799"
"Alpinópolis","-20.86361","-46.38806"
"Alpirsbach","48.34507","8.40197"
"Alpnach","46.94227","8.2718"
"Alpu","39.76903","30.9606"
"Alpuyeca","18.74006","-99.25937"
"Alquízar","22.80517","-82.58392"
"Alsager","53.09617","-2.30649"
"Alsbach-Hähnlein","49.73861","8.59583"
"Alsdorf","50.87673","6.16399"
"Alsfeld","50.75185","9.27082"
"Alsip","41.66892","-87.73866"
"Alsózsolca","48.06982","20.88046"
"Alsterdorf","53.61083","10.01306"
"Alsunga","56.98194","21.55938"
"Alt-Hohenschönhausen","52.54608","13.5013"
"Alt-Sanitz","53.81363","13.58786"
"Alt-Treptow","52.48863","13.4586"
"Alta","59.26667","18.18333"
"Alta Gracia","-31.65292","-64.42826"
"Alta Sierra","39.14156","-121.05384"
"Altach","47.35","9.65"
"Altadena","34.18973","-118.13118"
"Altagracia de Orituco","9.86005","-66.38139"
"Altai","46.37222","96.25833"
"Altamira","22.39215","-97.93867"
"Altamirano","16.73457","-92.03843"
"Altamont","42.20681","-121.73722"
"Altamonte Springs","28.66111","-81.36562"
"Altamura","40.82664","16.54952"
"Altãnia","-23.87444","-53.90167"
"Altar","30.71538","-111.83703"
"Altavilla Milicia","38.038","13.54947"
"Altavilla Vicentina","45.51329","11.46877"
"Altay","47.84864","88.13361"
"Altayskoye","51.95333","85.3325"
"Altbach","48.72268","9.38078"
"Altdorf","48.15374","12.18419"
"Altea","38.59885","-0.05139"
"Altena","51.29472","7.67337"
"Altenbeken","51.76455","8.94201"
"Altenberg","50.76556","13.75334"
"Altenberge","52.05","7.46667"
"Altenburg","50.98763","12.43684"
"Altendorf","47.18994","8.83823"
"Altenholz","54.4","10.13333"
"Altenkirchen","50.68594","7.64176"
"Altenkunstadt","50.12504","11.2503"
"Altenstadt","50.28747","8.94373"
"Altensteig","48.58649","8.60395"
"Altentreptow","53.69416","13.26504"
"Altepexi","18.37035","-97.29966"
"Alterosa","-21.24917","-46.14306"
"Altes Lager","48.41755","9.53606"
"Altglienicke","52.41116","13.5355"
"Althengstett","48.72325","8.79434"
"Altınekin","38.30778","32.86861"
"Altinho","-8.48972","-36.05944"
"Altınoluk","39.57944","26.73722"
"Altinópolis","-21.02556","-47.37389"
"Altınyayla","39.27249","36.75098"
"Altkirch","47.62417","7.23954"
"Altlandsberg","52.56503","13.72815"
"Altlußheim","49.30167","8.49917"
"Alto Araguaia","-17.31472","-53.21528"
"Alto Barinas","8.5931","-70.2261"
"Alto Lucero","20.95361","-97.44194"
"Alto Paraná","-23.12889","-52.31889"
"Alto Piquiri","-24.02806","-53.44056"
"Altofonte","38.04298","13.29434"
"Altomünster","48.38767","11.25691"
"Alton","26.28729","-98.31335"
"Alton North (historical)","26.29535","-98.30446"
"Altona","53.55","9.93333"
"Altona Meadows","-37.88413","144.78367"
"Altona North","-37.83487","144.84735"
"Altoona","44.80468","-91.44321"
"Altopascio","43.81618","10.67668"
"Altos","-5.03806","-42.46"
"Altos de San Francisco","8.86167","-79.79"
"Altos del Rosario","8.79162","-74.16556"
"Altotonga","19.76613","-97.24514"
"Altötting","48.22533","12.67665"
"Altpınar","39.20417","32.74778"
"Altrincham","53.38752","-2.34848"
"Altrip","49.43556","8.49472"
"Altsasu","42.89999","-2.16516"
"Altstadt Nord","50.93893","6.95752"
"Altstadt Sud","50.93331","6.95954"
"Altstätten","47.37766","9.54746"
"Altud","43.72194","43.86583"
"Altuf’yevskiy","55.88333","37.58333"
"Altus","34.63813","-99.33398"
"Altusried","47.8041","10.21429"
"Alūksne","57.42162","27.04662"
"Alum Rock","37.36605","-121.82718"
"Alupka","44.41808","34.04531"
"Alūr","12.97805","75.99094"
"Alushta","44.67728","34.4097"
"Aluva","10.10764","76.35158"
"Alva","36.80499","-98.66718"
"Alvalade","38.75328","-9.14397"
"Alvand","36.31885","49.16773"
"Alvarado","18.77143","-95.76181"
"Alvarães","-3.22083","-64.80417"
"Alvear","-29.09683","-56.55043"
"Alvesta","56.89935","14.55559"
"Alvin","29.42385","-95.2441"
"Alvinópolis","-20.10667","-43.04889"
"Alvor","37.12994","-8.59174"
"Alvorada","-12.48","-49.12472"
"Alwa Tirunagari","8.60635","77.93983"
"Alwar","27.56246","76.625"
"Alwaye","10.10649","76.35484"
"Alytus","54.39635","24.04142"
"Alzamay","55.5562","98.6644"
"Alzano Lombardo","45.73681","9.72638"
"Alzenau in Unterfranken","50.0888","9.06455"
"Alzey","49.74657","8.11513"
"Alzira","39.15","-0.43333"
"Al’met’yevsk","54.90442","52.3154"
"Am Djarass","16.06589","22.84308"
"Am Timan","11.0297","20.2827"
"Amacuzac","18.59861","-99.36944"
"Amadeo","14.17056","120.92361"
"Amadora","38.75382","-9.23083"
"Amagá","6.04001","-75.70315"
"Amagasaki","34.71667","135.41667"
"Amagi","33.41804","130.65413"
"Amagunze","6.33063","7.65247"
"Amahai","-3.33984","128.91975"
"Amaigbo","5.78917","7.83829"
"Amalāpuram","16.57868","82.00609"
"Amalfi","6.91016","-75.07764"
"Amaliáda","37.79842","21.35068"
"Amalner","21.03983","75.05887"
"Aman Garh","34.00584","71.92971"
"Amanalco de Becerra","19.31667","-100.01667"
"Amancio","20.81914","-77.57958"
"Amānganj","24.42664","80.03579"
"Amānpur","27.71222","78.73788"
"Amantea","39.12658","16.07512"
"Amara","44.61667","27.31667"
"Amaraji","-8.38306","-35.4525"
"Amarante","41.27271","-8.08245"
"Amarante do Maranhão","-5.56667","-46.74222"
"Amărăştii de Jos","43.95","24.16667"
"América Dourada","-11.45528","-41.43611"
"Américo Brasiliense","-21.72444","-48.10167"
"Amés","42.03471","-93.61994"
"Amman","31.95522","35.94503"
"Ammanford","51.79279","-3.98833"
"Ammāpettai","10.79476","79.31986"
"Ammi Moussa","35.86781","1.11143"
"Ammon","43.46964","-111.96664"
"Amnat Charoen","15.85851","104.62883"
"Amnéville","49.25671","6.13414"
"Amod","21.99317","72.87047"
"Amöneburg","50.79595","8.9233"
"Amontada","-3.36167","-39.83167"
"Amora","38.62961","-9.11557"
"Amorebieta","43.21667","-2.73333"
"Amory","33.98428","-88.4881"
"Amos","48.56688","-78.11624"
"Amozoc de Mota","19.04611","-98.045"
"Ampahana","-14.75","50.21667"
"Ampanihy","-24.6937","44.74581"
"Ampara","7.29754","81.68202"
"Amparafaravola","-17.5876","48.22391"
"Amparo","-22.70111","-46.76444"
"Ampasimanolotra","-18.81667","49.06667"
"Ampelóna","39.74481","22.36575"
"Amper","9.35509","9.70121"
"Ampére","-25.915","-53.47278"
"Ampfing","48.254","12.41515"
"Amphoe Sikhiu","14.89944","101.70833"
"Amplepuis","45.97259","4.3316"
"Ampliación Colonia Lázaro Cárdenas","28.38333","-105.61667"
"Ampliación San Mateo (Colonia Solidaridad)","19.61639","-99.14722"
"Amposta","40.70995","0.57856"
"Ampthill","52.02694","-0.49567"
"Amqui","48.46382","-67.43134"
"Amras","47.25","11.41667"
"Amrāvati","20.93333","77.75"
"Amreli","21.59983","71.21169"
"Amriswil","47.54699","9.29586"
"Amritsar","31.62234","74.87534"
"Amroha","28.90314","78.46984"
"Amroli","21.25084","72.83878"
"Amstelveen","52.30083","4.86389"
"Amsterdam","42.93869","-74.18819"
"Amsterdam-Zuidoost","52.3075","4.97222"
"Amstetten","48.1229","14.87206"
"Amtala","22.37046","88.27864"
"Amudālavalasa","18.41025","83.90295"
"Amuñgan","15.3652","119.9582"
"Amuntai","-2.41773","115.24941"
"Amurrio","",""
"Amursk","50.23685","136.88136"
"Amurzet","47.69541","131.09493"
"Amvrosiyivka","47.79348","38.47768"
"An Muileann gCearr","53.53333","-7.35"
"An Nabk","34.02403","36.72848"
"An Naşr","31.28137","34.30253"
"An Nimāş","19.14547","42.12009"
"An Nuhūd","12.7","28.43333"
"An Nuşayrāt","31.44861","34.3925"
"An Ros","53.52424","-6.10497"
"Anabar","-0.50845","166.95326"
"Anacapri","40.5517","14.21225"
"Anacleto Canabal 2da. Sección","17.97556","-93.02417"
"Anaco","9.42958","-64.46428"
"Anaconda","46.12854","-112.94226"
"Anacortes","48.5126","-122.61267"
"Anadarko","35.07256","-98.24366"
"Anadia","-9.68444","-36.30417"
"Anadyr","64.73424","177.5103"
"Anagni","41.7435","13.15542"
"Anaheim","33.83529","-117.9145"
"Anahuac","28.48396","-106.7472"
"Anaime","4.39639","-75.445"
"Anajatuba","-3.26444","-44.61972"
"Anak","38.51083","125.49417"
"Anakāpalle","17.69134","83.00395"
"Anamalais","10.58303","76.93441"
"Anamosa","42.10834","-91.28516"
"Anamur","36.07508","32.83691"
"Anan","33.91667","134.65"
"Anand","22.55251","72.9552"
"Anandnagar","27.10062","83.27156"
"Anandpur","31.23926","76.50253"
"Ananindeua","-1.36556","-48.37222"
"Anantapur","14.67784","77.60813"
"Anantnag","33.73068","75.15418"
"Anapa","44.89084","37.3239"
"Anapskaya","44.89671","37.386"
"Añasco","18.28273","-67.13962"
"Anastácio","-20.48361","-55.80694"
"Anastasiyevskaya","45.21576","37.89258"
"Anatolí","39.63531","20.86578"
"Añatuya","-28.46064","-62.83472"
"Anbu","23.44895","116.68092"
"Anbyŏn-ŭp","39.0425","127.52389"
"Ancaster","43.21806","-79.98716"
"Ancenis","47.36667","-1.16667"
"Anchau","10.96245","8.39233"
"Anchorage","61.21806","-149.90028"
"Ancient Oaks","40.54732","-75.58935"
"Ancón","8.96015","-79.5514"
"Ancona","43.5942","13.50337"
"Ancud","-41.8707","-73.81622"
"Ancuya","1.2633","-77.51376"
"Anda","46.40202","125.31454"
"Andahuaylas","-13.65556","-73.38722"
"Andalgalá","-27.58185","-66.31626"
"Andalucía","4.17061","-76.16641"
"Andalusia","31.30808","-86.48243"
"Andapa","-14.65","49.65"
"Andenne","50.48941","5.09513"
"Anderlues","50.40704","4.27136"
"Andernach","50.43109","7.40425"
"Andernos-les-Bains","44.74572","-1.10355"
"Anderson","40.44821","-122.29778"
"Anderson Mill","30.45492","-97.80584"
"Anderstorp","57.28333","13.63333"
"Andes","5.6561","-75.87877"
"Andi","42.78359","46.26171"
"Andijon","40.78206","72.34424"
"Andilamena","-17.01009","48.57313"
"Andırın","37.57757","36.35492"
"Andkhōy","36.95293","65.12376"
"Andoain","43.21658","-2.0253"
"Andol","17.81458","78.07713"
"Andong","36.56636","128.72275"
"Andop","7.86111","125.75389"
"Andora","43.95514","8.14121"
"Andorra","40.97655","-0.44721"
"Andorra la Vella","42.50779","1.52109"
"Andover","45.2333","-93.29134"
"Andovoranto","-18.95443","49.1094"
"Andradas","-22.06806","-46.56917"
"Andradina","-20.89611","-51.37944"
"Andratx","39.57553","2.42017"
"Andreapol’","56.65134","32.2664"
"Andreas","54.36667","-4.43333"
"Andrelândia","-21.73972","-44.30917"
"Andreotta","39.3075","16.2177"
"Andres Bonifacio","10.91667","123.25"
"Andrésy","48.98235","2.05687"
"Andrews","32.31872","-102.54572"
"Andreyevka","55.98028","37.135"
"Andreyevo","55.9465","41.1505"
"Andreyevskoye","55.55487","37.92566"
"Andrézieux-Bouthéon","45.52625","4.26021"
"Andria","41.23117","16.29797"
"Andrijevica","42.73389","19.79194"
"Andritz","47.11387","15.42348"
"Andrushivka","50.02288","29.02023"
"Andrychów","49.85497","19.33834"
"Andújar","38.03922","-4.05077"
"Andzhiyevskiy","44.23889","43.08556"
"Anekal","12.7111","77.69557"
"Anenecuilco","18.77738","-98.98907"
"Anenii Noi","46.87839","29.23483"
"Ang Thong","14.58839","100.45283"
"Angahuán","19.5479","-102.22563"
"Angamacutiro de la Unión","20.14998","-101.71113"
"Angamāli","10.19055","76.38789"
"Angarsk","52.53667","103.88639"
"Angat","14.9285","121.03"
"Angatuba","-23.48972","-48.41278"
"Angaur State","6.90601","134.12997"
"Angeles City","15.15","120.58333"
"Angelslo","52.7809","6.92645"
"Angermünde","53.01499","13.99924"
"Angers","47.47381","-0.54774"
"Angicos","-5.66556","-36.60111"
"Anglès","41.95617","2.63603"
"Anglet","43.47664","-1.51346"
"Angleton","29.16941","-95.43188"
"Angol","-37.79519","-72.71636"
"Angola","41.63477","-84.99941"
"Angono","14.5266","121.1536"
"Angostura","25.36586","-108.16107"
"Angoulême","45.65","0.15"
"Angra do Heroísmo","38.65483","-27.21734"
"Angra dos Reis","-23.00667","-44.31806"
"Angren","41.01667","70.14361"
"Angri","40.73815","14.5707"
"Anguera","-12.15111","-39.24639"
"Anguillara Sabazia","42.0792","12.28368"
"Angul","20.84089","85.10192"
"Angus","44.31681","-79.88295"
"Anhée","50.31039","4.87827"
"Anibare","-0.52792","166.95249"
"Aniche","50.32995","3.25346"
"Anicuns","-16.46111","-49.96167"
"Anina","45.07944","21.85694"
"Aninoasa","44.96667","25.43333"
"Añisoc","1.8658","10.76892"
"Aniva","46.71492","142.52866"
"Anjad","22.04171","75.05519"
"Anjala","60.68333","26.83333"
"Anjangaon","21.16516","77.3091"
"Anjār","23.11316","70.02671"
"Anjepy","-18.85","47.71667"
"Anjiang","27.31944","110.10306"
"Anjō","34.95828","137.08054"
"Anjozorobe","-18.4","47.86667"
"Anju","39.61778","125.66472"
"Anka","12.11347","5.92681"
"Ankang","32.68","109.01722"
"Ankara","39.91987","32.85427"
"Ankaran","45.57861","13.73611"
"Ankazoabo","-22.28333","44.51667"
"Ankazobe","-18.31667","47.11667"
"Ankazondandy","-18.7","47.78333"
"Ankeny","41.72971","-93.60577"
"Anklam","53.85637","13.68965"
"Ankleshwar","21.63236","72.99001"
"Ankola","14.66049","74.3047"
"Ankpa","7.40249","7.63196"
"Ankum","52.55","7.88333"
"Anloga","5.79473","0.89728"
"Anlu","31.2575","113.67833"
"Ann Arbor","42.27756","-83.74088"
"Anna","33.349","-96.5486"
"Anna Regina","7.26439","-58.50769"
"Annaba","36.9","7.76667"
"Annaberg-Buchholz","50.57953","13.00627"
"Annabichl","46.65","14.31667"
"Annaka","36.33011","138.89585"
"Annāmalainagar","11.4","79.73333"
"Annan","54.98839","-3.25647"
"Annandale","38.83039","-77.19637"
"Annapolis","38.97845","-76.49218"
"Annau","37.88754","58.51596"
"Annavāsal","10.4606","78.70029"
"Annecy","45.90621","6.1267"
"Annecy-le-Vieux","45.91971","6.14393"
"Annemasse","46.19439","6.23775"
"Annerley","-27.51228","153.03248"
"Annezin","50.53192","2.61785"
"Annfield Plain","54.85749","-1.73827"
"Annigeri","15.42513","75.4335"
"Annino","55.58316","37.26019"
"Anniston","33.65983","-85.83163"
"Annoeullin","50.52925","2.9318"
"Annonay","45.23992","4.6707"
"Annotto Bay","18.2717","-76.76523"
"Annur","11.23616","77.10514"
"Annweiler am Trifels","49.20613","7.97527"
"Anoixi","38.13267","23.85874"
"Anoka","45.19774","-93.38718"
"Anolaima","4.83362","-74.4995"
"Anonang","",""
"Anori","-3.77278","-61.64417"
"Añover de Tajo","39.98873","-3.76579"
"Anqing","30.51365","117.04723"
"Anqiu","36.43417","119.1925"
"Anröchte","51.56667","8.33333"
"Ans","50.6623","5.52029"
"Ansalta","42.68941","46.11782"
"Ansan-si","37.32361","126.82194"
"Ansbach","49.30481","10.5931"
"Anse","45.93023","4.71576"
"Anse à Galets","18.83449","-72.86644"
"Anse Boileau","-4.71667","55.48333"
"Anse La Raye","13.94619","-61.03879"
"Anse Royale","-4.73333","55.51667"
"Anse-Bertrand","16.47239","-61.50739"
"Anseong","37.01083","127.27028"
"Anserma","5.33278","-75.79111"
"Ansermanuevo","4.79722","-75.995"
"Anshan","41.12361","122.99"
"Anshing","20.0409","77.31501"
"Anshun","26.25","105.93333"
"Ansonia","41.34621","-73.079"
"Anstey","52.67368","-1.18841"
"Anta","41.26634","-8.62844"
"Antakotako","-15.31667","49.8"
"Antakya","36.20655","36.15722"
"Antalaha","-14.90033","50.27876"
"Antalya","36.90812","30.69556"
"Antananarivo","-18.91368","47.53613"
"Antanifotsy","-19.65","47.31667"
"Antelope","38.70824","-121.32995"
"Antequera","37.01938","-4.56123"
"Anthem","33.86726","-112.14682"
"Anthiyur","11.57506","77.59043"
"Anthony","31.99927","-106.60555"
"Antibes","43.56241","7.12777"
"Antigo","45.14025","-89.15234"
"Antigonish","45.61685","-61.99858"
"Antigua","28.42307","-14.01379"
"Antigua Guatemala","14.56111","-90.73444"
"Antiguo Cuscatlán","13.66492","-89.25319"
"Antioch","38.00492","-121.80579"
"Antipino","57.10679","65.75755"
"Antipolo","10.3565","122.9646"
"Antofagasta","-23.65236","-70.3954"
"Antoing","50.56765","3.4492"
"Antonina","-25.42861","-48.71194"
"Antonio Escobedo","20.8","-104.01667"
"Antony","48.75329","2.29668"
"Antratsyt","48.11503","39.09128"
"Antri","26.05804","78.21027"
"Antrim","54.7","-6.2"
"Arbutus","39.25455","-76.69997"
"Arbuzynka","47.90972","31.31963"
"Arcachon","44.65854","-1.16879"
"Arcadia","34.13973","-118.03534"
"Arcata","40.86652","-124.08284"
"Arcelia","18.31847","-100.28148"
"Arcen","51.47667","6.18056"
"Archángelos","36.21492","28.11487"
"Archbald","41.4948","-75.53685"
"Archdale","35.91458","-79.97198"
"Archena","38.11631","-1.30043"
"Archidona","37.09654","-4.38869"
"Archway","51.56733","-0.13415"
"Arcisate","45.85578","8.86823"
"Arco","45.91772","10.88672"
"Arcola","44.11778","9.91175"
"Arconate","45.54134","8.84891"
"Arcore","45.62675","9.32454"
"Arcos","40.44779","-8.44171"
"Arcos de la Frontera","36.75075","-5.81056"
"Arcos de Valdevez","41.84668","-8.41905"
"Arcot","12.90569","79.31897"
"Arcoverde","-8.41889","-37.05389"
"Arcozelo","41.06187","-8.63192"
"Arcueil","48.79993","2.33256"
"Ardabīl","38.2498","48.2933"
"Ardahan","41.10871","42.70222"
"Ardakān","32.31001","54.01747"
"Ardanuç","41.12738","42.06292"
"Ardatov","54.84767","46.23878"
"Ardea","41.60742","12.54158"
"Arden Hills","45.05024","-93.15661"
"Arden-Arcade","38.6025","-121.37854"
"Ardeşen","41.19111","40.9875"
"Ardestān","33.3761","52.3694"
"Ardmore","40.00678","-75.28546"
"Ardon","43.1772","44.29702"
"Ardooie","50.9757","3.19736"
"Ardrossan","55.65018","-4.80659"
"Ardud","47.63333","22.88333"
"Areado","-21.35861","-46.14556"
"Areal","-22.23056","-43.10556"
"Arecibo","18.47245","-66.71573"
"Areguá","-25.3125","-57.38472"
"Areia","-6.96333","-35.69167"
"Areia Branca","-10.75778","-37.31528"
"Arenal","19.38111","-98.94278"
"Arenápolis","-14.45028","-56.84611"
"Arenas de San Pedro","40.21041","-5.08694"
"Arendal","58.46151","8.77253"
"Arendonk","51.32267","5.08289"
"Arenys de Mar","41.5819","2.54936"
"Arenys de Munt","41.61424","2.53972"
"Arenzano","44.40521","8.68315"
"Arequipa","-16.39889","-71.535"
"Ares","44.76667","-1.13333"
"Arese","45.55048","9.07741"
"Aretxabaleta","43.03414","-2.50456"
"Arezzo","43.46276","11.88068"
"Arfoud","31.4353","-4.23258"
"Argamasilla de Alba","39.12917","-3.09247"
"Argamasilla de Calatrava","38.72985","-4.07627"
"Arganda","40.30076","-3.43722"
"Arganzuela","40.40021","-3.69618"
"Argao","9.87944","123.59556"
"Argayash","55.4888","60.8767"
"Argelers","42.54714","3.02253"
"Argenta","44.61397","11.83547"
"Argentan","48.74441","-0.02023"
"Argenteuil","48.94788","2.24744"
"Argenton-sur-Creuse","46.58997","1.51981"
"Argentona","41.55336","2.40114"
"Argo","19.51667","30.41667"
"Argoncilhe","41.02541","-8.53885"
"Argos Orestiko","40.45354","21.25889"
"Argostólion","38.18109","20.48903"
"Argudan","43.42139","43.91583"
"Argun","43.29713","45.87454"
"Argungu","12.74482","4.52514"
"Argyroúpoli","37.90594","23.75035"
"Arhavi","41.35121","41.30456"
"Arhribs","36.79361","4.31158"
"Ariana","36.86012","10.19337"
"Ariano Irpino-Martiri","41.16024","15.10625"
"Arias","-33.64411","-62.40272"
"Arica","-18.4746","-70.29792"
"Ariccia","41.72063","12.6723"
"Ariceştii-Rahtivani","44.95","25.83333"
"Aridaía","40.97306","22.05639"
"Ariel","32.1065","35.18449"
"Arienzo","41.02734","14.4977"
"Arifwala","30.29058","73.06574"
"Ariguaní","",""
"Arilje","43.75306","20.09556"
"Arima","10.63737","-61.28228"
"Arimalam","10.25498","78.88403"
"Aringay","16.394","120.3545"
"Arinos","-15.91694","-46.10556"
"Ario de Rayón","20.02651","-102.34814"
"Ario de Rosales","19.209","-101.70743"
"Aripuanã","-9.16667","-60.63333"
"Ariquemes","-9.91333","-63.04083"
"Arish","31.13159","33.79844"
"Aristóbulo del Valle","-27.09625","-54.89626"
"Aritao","16.2979","121.0345"
"Arivonimamo","-19.01667","47.18333"
"Ariyalūr","11.13849","79.07556"
"Arizona City","32.75589","-111.67096"
"Arjawinangun","-6.64528","108.41028"
"Arjona","37.93493","-4.05478"
"Arkadak","51.93261","43.49779"
"Arkadelphia","34.12093","-93.05378"
"Arkalgūd","12.76171","76.06035"
"Arkalyk","50.24915","66.92027"
"Arkansas City","37.06197","-97.03837"
"Arkhangel’sk","64.5401","40.5433"
"Arkhara","49.42447","130.08569"
"Arkhipo-Osipovka","44.37194","38.52972"
"Arkhonskaya","43.11","44.5125"
"Arklow","52.79306","-6.14139"
"Arles","43.67681","4.63031"
"Arlesey","52.00713","-0.26565"
"Arlesheim","47.49412","7.61979"
"Arlington","48.19871","-122.12514"
"Arlington Heights","40.99009","-75.21629"
"Arlon","49.68333","5.81667"
"Arlöv","55.63248","13.07141"
"Arluno","45.50344","8.94222"
"Armação de Búzios","-22.74694","-41.88167"
"Armadale","55.88333","-3.7"
"Armagh","54.35","-6.66667"
"Armăşeşti","44.75","26.58333"
"Armavir","44.9892","41.1234"
"Armenia","13.74361","-89.49889"
"Armentières","50.68568","2.88214"
"Armero-Guyabal","4.96701","-74.90294"
"Armidale","-30.50123","151.66553"
"Armilla","37.14386","-3.62534"
"Armstrong","-32.78215","-61.60222"
"Armthorpe","53.53518","-1.05341"
"Armyansk","46.10919","33.69206"
"Arnage","47.92616","0.18782"
"Arnavutköy","41.18355","28.7402"
"Arncliffe","-33.93627","151.14819"
"Arnedo","42.228","-2.10083"
"Arnemuiden","51.50167","3.675"
"Arnhem","51.98","5.91111"
"Arni","12.66771","79.28529"
"Arno","7.06691","171.55413"
"Arnold","38.43283","-90.37762"
"Arnouville","48.98333","2.41667"
"Arnprior","45.43341","-76.34939"
"Arnsberg","51.38333","8.08333"
"Arnstadt","50.84048","10.95198"
"Arnstein","49.97767","9.96983"
"Arnstorf","48.5584","12.81674"
"Arochukwu","5.38941","7.91235"
"Aroeiras","-7.54528","-35.7075"
"Aroma","15.81667","36.13333"
"Aromashevo","56.86018","68.63754"
"Arona","45.7589","8.55715"
"Aroor","9.8694","76.30498"
"Arouca","10.62877","-61.33487"
"Arpaçay","40.84522","43.32747"
"Arpajon","48.58875","2.24672"
"Arpajon-sur-Cère","44.90391","2.45664"
"Arpino","40.88882","14.32015"
"Arques","50.73375","2.30237"
"Arquitecto Tomás Romero Pereira","-26.48333","-55.25"
"Arradon","47.62709","-2.8215"
"Arrah","25.55629","84.66335"
"Arraial do Cabo","-22.96611","-42.02778"
"Arraiján","8.95187","-79.66011"
"Arras","50.29301","2.78186"
"Arrasate / Mondragón","43.06441","-2.48977"
"Arrecife","28.96302","-13.54769"
"Arrentela","38.625","-9.10151"
"Arriaga","16.23589","-93.89995"
"Arrifana","40.91565","-8.49657"
"Arrifes","37.76667","-25.7"
"Arrigorriaga","43.21006","-2.88562"
"Arris","35.25881","6.34706"
"Arrochar","40.59844","-74.07264"
"Arroio do Meio","-29.40111","-51.945"
"Arroio dos Ratos","-30.07722","-51.72917"
"Arroio Grande","-32.2375","-53.08694"
"Arroyito","-31.42022","-63.05002"
"Arroyo","17.9658","-66.06128"
"Arroyo de la Encomienda","41.60956","-4.79692"
"Arroyo de la Luz","39.48511","-6.58401"
"Arroyo Grande","35.11859","-120.59073"
"Arroyo Naranjo","23.03677","-82.36937"
"Arroyo Seco","-33.15489","-60.50863"
"Arroyomolinos","40.26951","-3.91946"
"Arruda dos Vinhos","38.98411","-9.07746"
"Ars-sur-Moselle","49.07791","6.0742"
"Arsen’yev","44.15254","133.27791"
"Arsikere","13.31446","76.25704"
"Arsin","40.95271","39.92674"
"Arsk","56.09151","49.87783"
"Aš","59.66472","10.79465"
"Aş Şaff","29.56472","31.28111"
"Aş Şanamayn","33.07186","36.18316"
"Aş Şuwayrah","32.92556","44.77583"
"Asău","-13.51963","-172.63784"
"Ascoli Piceno","42.85351","13.57395"
"Ascoli Satriano","41.20365","15.56646"
"Ascona","46.15451","8.77327"
"Ascope","-7.71444","-79.10778"
"Ascot","51.41082","-0.6748"
"Ascot Vale","-37.77988","144.92276"
"Asekeyevo","53.57425","52.79724"
"Asenovgrad","42.01667","24.86667"
"Asentamiento Humano Nicolas de Pierola","-11.93573","-76.70611"
"Aserrí","9.85876","-84.0923"
"Ash Shafā","21.0721","40.31185"
"Ash Shajarah","32.64391","35.94175"
"Ash Shāmīyah","29.34722","47.96167"
"Ash Shaţrah","31.40906","46.1727"
"Ash Shaykh Miskīn","32.82944","36.15933"
"Ash Shīḩānīyah","25.37088","51.22264"
"Ash Shuhadā’","30.59683","30.89931"
"Ash Shuyūkh","31.57004","35.15606"
"Asha","54.9973","57.2722"
"Ashbourne","53.51163","-6.39821"
"Ashburn","41.74753","-87.71116"
"Ashburnham","42.6362","-71.90785"
"Ashburton","-43.89834","171.73011"
"Ashby de la Zouch","52.74632","-1.4732"
"Ashchysay","43.5537","68.89792"
"Ashdod","31.79213","34.64966"
"Asheboro","35.70791","-79.81364"
"Asheville","35.60095","-82.55402"
"Ashfield","-33.88834","151.12274"
"Ashford","51.14648","0.87376"
"Ashgabat","37.95","58.38333"
"Ashibetsu","43.50972","142.18556"
"Ashikaga","36.33333","139.45"
"Ashington","55.17719","-1.56412"
"Ashiya","34.72807","135.30264"
"Ashkāsham","36.68333","71.53333"
"Ashkelon","31.66926","34.57149"
"Ashland","42.19458","-122.70948"
"Ashmūn","30.29735","30.97641"
"Ashmyany","54.421","25.936"
"Ashoknagar","24.57578","77.73123"
"Ashoknagar Kalyangarh","22.86416","88.63701"
"Ashta","16.94943","74.40936"
"Ashtabula","41.86505","-80.78981"
"Ashtarak","40.2991","44.36204"
"Ashtead","51.30873","-0.29972"
"Ashti","19.37671","76.2252"
"Ashton in Makerfield","53.48333","-2.65"
"Ashton-Sandy Spring","39.14976","-77.00504"
"Ashton-under-Lyne","53.48876","-2.0989"
"Ashukino","56.16667","37.95"
"Ashwaubenon","44.48221","-88.0701"
"Ashwood","-37.86659","145.10553"
"Asia","9.5506","122.5164"
"Asifābād","19.35851","79.28415"
"Asikkala","61.21667","25.5"
"Asilah","35.46522","-6.03415"
"Asingan","16.0051","120.6695"
"Asino","56.99987","86.14393"
"Asipovichy","53.3011","28.6386"
"Aşkale","39.92083","40.695"
"Askern","53.61639","-1.15237"
"Askim","59.58326","11.16286"
"Askino","56.09013","56.57831"
"Askiz","53.13194","90.52639"
"Askøy","60.4","5.18333"
"Aßlar","50.59163","8.46273"
"Asmara","15.33805","38.93184"
"Asnières-sur-Seine","48.91667","2.28333"
"Aso","32.93726","131.08008"
"Asola","45.22018","10.41214"
"Aspach","48.96667","9.4"
"Aspe","38.34511","-0.76721"
"Aspen","39.1911","-106.81754"
"Aspen Hill","39.07955","-77.07303"
"Aspendale","-38.02913","145.10266"
"Aspendale Gardens","-38.02277","145.11798"
"Asperg","48.90525","9.13502"
"Asprópyrgos","38.06134","23.58971"
"Assab","13.00917","42.73944"
"Assafarge","40.15895","-8.43167"
"Assago","45.40887","9.12565"
"Assaí","-23.37333","-50.84139"
"Assaré","-6.87444","-39.875"
"Asse","50.91011","4.19836"
"Assemini","39.29123","8.99879"
"Assen","52.99667","6.5625"
"Assenede","51.22598","3.75085"
"Assens","55.27023","9.90081"
"Assesse","50.36934","5.02204"
"Assinovskaya","43.24167","45.18194"
"Assis","-22.66167","-50.41222"
"Assomada","15.1","-23.68333"
"Astanajapura","-6.8017","108.6311"
"Astara","38.4291","48.872"
"Asten","51.40417","5.74861"
"Asti","44.90162","8.20751"
"Astolfo Dutra","-21.31528","-42.86222"
"Aston","52.5","-1.88333"
"Astorga","6.90722","125.45583"
"Astoria","46.18788","-123.83125"
"Astrakhan","46.34968","48.04076"
"Astravyets","54.61378","25.95537"
"Astrea","9.49828","-73.97591"
"Asturias","10.5669","123.7161"
"Asūbulaq","49.55688","83.06355"
"Asunción","-25.28646","-57.647"
"Asunción Ixtaltepec","16.50315","-95.06121"
"Asunción Mita","14.33083","-89.71083"
"Asunción Nochixtlán","17.45916","-97.22605"
"Asvestochóri","40.64125","23.02528"
"Aswan","24.09082","32.89942"
"Asyqata","40.8946","68.3643"
"Asyūţ","27.18096","31.18368"
"Aszód","47.65174","19.4785"
"Aţ Ţafīlah","30.83752","35.60442"
"At Tāj","24.20487","23.2857"
"At Tall","33.61033","36.3107"
"At Tall al Kabīr","30.54323","31.78504"
"Aţ Ţaraf","25.36232","49.72757"
"Aţ Ţayyibah","32.54304","35.71756"
"At Tūbī","26.55778","49.99167"
"Aţ Ţurrah","32.63979","35.98943"
"At-Bashi","41.16951","75.80099"
"Atabey","37.95083","30.63861"
"Atafu Village","-8.54212","-172.51591"
"Atakent","40.84782","68.50643"
"Atakpamé","7.53333","1.13333"
"Atalaia","-9.50194","-36.02278"
"Atamanovka","51.93333","113.63333"
"Atamaría","37.59989","-0.80682"
"Atambua","-9.10611","124.8925"
"Atami","35.08834","139.05325"
"Atamyrat","37.83573","65.21058"
"Atani","6.01277","6.74768"
"Ataq","14.53767","46.83187"
"Atar","20.5177","-13.04857"
"Atarfe","37.22479","-3.68686"
"Atarra","25.28618","80.57155"
"Atarrabia","42.8323","-1.60735"
"Atascadero","35.48942","-120.67073"
"Atascocita","29.99883","-95.1766"
"Ataşehir","40.9833","29.1167"
"Atasū","48.68659","71.64469"
"Atbara","17.70217","33.98638"
"Atbasar","51.80652","68.35996"
"Atchison","39.56305","-95.12164"
"Atco","39.76984","-74.88739"
"Ateli Mandi","28.1008","76.2598"
"Atemajac de Brizuela","20.13735","-103.72588"
"Atempan","19.83945","-97.45855"
"Atenas","9.97489","-84.37886"
"Atencingo","18.51347","-98.60542"
"Atequiza","20.39006","-103.14065"
"Atescatempa","14.17444","-89.7425"
"Ath","50.62937","3.77801"
"Ath Thawrah","35.83758","38.54828"
"Athelstone","-34.87019","138.6999"
"Athens","34.80243","-86.97219"
"Atherstone","52.57536","-1.54693"
"Atherton","37.46133","-122.19774"
"Athi River","-1.4563","36.97826"
"Athis-Mons","48.70522","2.39147"
"Athlone","53.43333","-7.95"
"Athni","16.72613","75.06421"
"Athol","42.59592","-72.22675"
"Athy","52.99139","-6.98028"
"Ati","13.2154","18.3353"
"Atibaia","-23.11694","-46.55028"
"Atimonan","14.0027","121.92078"
"Atiquizaya","13.97694","-89.7525"
"Atitalaquia","20.05964","-99.22163"
"Atizapán","19.25","-99.55"
"Atkaracalar","40.81593","33.07556"
"Atkarsk","51.87185","45.00775"
"Atkinson","42.83842","-71.147"
"Atlacomulco de Fabela","19.79919","-99.875"
"Atlanta","33.11374","-94.16435"
"Atlantic","41.4036","-95.01388"
"Atlantic Beach","30.33441","-81.3987"
"Atlantic City","39.36415","-74.42306"
"Atlantis","-33.56668","18.48335"
"Atlatlahucan","18.93413","-98.8982"
"Atlautla","19.02188","-98.77859"
"Atliaca","17.65168","-99.37471"
"Atlixco","18.90815","-98.43613"
"Atmakūr","15.88109","78.58704"
"Atmore","31.02379","-87.49387"
"Atoka","35.44119","-89.77814"
"Atoluca","19.855","-97.35361"
"Atotonilco de Tula","20.0077","-99.21804"
"Atotonilco el Alto","20.55079","-102.50942"
"Atotonilco el Grande","20.28632","-98.6685"
"Atotonilquillo","20.39287","-103.12356"
"Atouguia da Baleia","39.33814","-9.3263"
"Atoyac","20.0097","-103.51652"
"Atoyac de Álvarez","17.20667","-100.43306"
"Atoyatempan","18.81925","-97.9139"
"Atraulī","28.02964","78.28571"
"Atraulia","26.3333","82.94727"
"Atri","42.57642","13.98899"
"Atripalda","40.91867","14.82721"
"Atsiaman","5.69775","-0.32824"
"Atsugi","35.44272","139.36931"
"Attadale","-32.02489","115.802"
"Avellaneda","-29.11761","-59.65834"
"Avellino","40.91494","14.79103"
"Avenal","36.00412","-120.12903"
"Avenel","40.58038","-74.28515"
"Aventura","25.95648","-80.13921"
"Aver-o-Mar","41.40607","-8.77958"
"Aversa","40.97259","14.20745"
"Aves","41.37034","-8.4101"
"Avesta","60.14274","16.16295"
"Avetrana","40.3507","17.7326"
"Avezzano","42.02896","13.42641"
"Aviá Terai","-26.68532","-60.7292"
"Aviano","46.07056","12.59472"
"Aviano-Castello","46.06759","12.58324"
"Avigliana","45.07978","7.39647"
"Avigliano","40.73291","15.72004"
"Avignon","43.94834","4.80892"
"Avilés","43.55473","-5.92483"
"Avinashi","11.19297","77.26865"
"Avintes","41.10711","-8.55131"
"Avion","50.41038","2.83053"
"Avlónas","38.25149","23.69554"
"Avocado Heights","34.03612","-117.99118"
"Avola","36.9084","15.13937"
"Avon","39.63137","-106.52225"
"Avon Center","41.45976","-82.01959"
"Avon Lake","41.50532","-82.0282"
"Avon Park","27.59587","-81.50619"
"Avondale","33.4356","-112.3496"
"Avra Valley","32.43785","-111.31539"
"Avrămeni","48.01667","26.95"
"Avranches","48.68436","-1.35686"
"Avrig","45.71667","24.38333"
"Avrillé","47.5","-0.58333"
"Avsallar","36.62448","31.76941"
"Avşar","39.97389","47.42389"
"Avsyunino","55.56516","39.12324"
"Avtovo","59.87167","30.26583"
"Avtury","43.16354","46.0012"
"Awang","7.15306","124.22111"
"Awans","50.66774","5.46329"
"Awantipur","33.91978","75.01515"
"Aweil","8.76194","27.39194"
"Awgu","6.07278","7.47739"
"Awjilah","29.10806","21.28694"
"Awka","6.21269","7.07199"
"Awsīm","30.12303","31.13571"
"Axams","47.23111","11.27892"
"Axel","51.26667","3.90833"
"Axim","4.86641","-2.24181"
"Axminster","50.78259","-2.99787"
"Axochiapan","18.50246","-98.75358"
"Axtla de Terrazas","21.43923","-98.87508"
"Axum","14.12109","38.72337"
"Ayabaca","-4.63983","-79.71491"
"Ayabe","35.3","135.25"
"Ayacucho","-13.15878","-74.22321"
"Ayagoz","47.96447","80.43437"
"Ayakudi","10.44992","77.55198"
"Ayamé","5.6052","-3.15709"
"Ayamonte","37.21329","-7.40807"
"Ayancık","41.94472","34.58611"
"Ayang-ni","38.24306","125.78"
"Ayapa","18.2241","-93.11158"
"Ayapango","19.12692","-98.79988"
"Ayapel","8.31372","-75.13982"
"Ayaş","40.01933","32.33221"
"Ayaviri","-14.88639","-70.58889"
"Aydarken","39.94319","71.34184"
"Ayden","35.47266","-77.41552"
"Aydın","37.84501","27.83963"
"Aydıncık","40.12727","35.28765"
"Aydıntepe","40.38325","40.14272"
"Aydūn","32.50528","35.85809"
"Ayer Hangat","6.42062","99.82199"
"Aykhal","65.93381","111.4834"
"Aykol","40.95759","80.13574"
"Aylesbury","51.81665","-0.81458"
"Aylmer","42.76679","-80.98302"
"Aylsham","52.79672","1.25107"
"Ayod","8.12193","31.40904"
"Ayora","39.05852","-1.05635"
"Ayorou","14.73075","0.91739"
"Ayotlán","20.52907","-102.3262"
"Ayr","55.46273","-4.63393"
"Ayteke Bi","45.84607","62.15264"
"Aytos","42.7","27.25"
"Aytré","46.1357","-1.11452"
"Ayutinskiy","47.78228","40.14763"
"Ayutla","20.12907","-104.34355"
"Ayutla de los Libres","16.96376","-99.09616"
"Ayutuxtepeque","13.74556","-89.20639"
"Ayvacık","40.99111","36.63139"
"Ayvalık","39.31927","26.69341"
"Aywaille","50.47411","5.67684"
"Ayyampettāi","10.90141","79.17984"
"Az Zabadānī","33.72488","36.1005"
"Az Zarqā","31.20864","31.63528"
"Az Zāwīyah","32.7571","12.72764"
"Az Zawr","29.4425","48.27472"
"Az Zaytūnīyah","31.95403","35.1624"
"Az Zubayr","30.39213","47.70175"
"Az Zulfī","26.29945","44.81542"
"Az Zuwāydah","31.43954","34.38053"
"Az Zuwaytīnah","30.9522","20.12022"
"Azacualpa","15.34333","-88.55139"
"Azalea Park","28.54111","-81.30062"
"Azambuja","39.07029","-8.86822"
"Azamgarh","26.06832","83.18358"
"Azángaro","-14.90843","-70.19616"
"Azare","11.67478","10.19069"
"Azazga","36.74472","4.37222"
"Azcapotzalco","19.48698","-99.18594"
"Azeitão","38.51919","-9.0139"
"Azemmour","33.28952","-8.3425"
"Azenha","41.07651","-8.62468"
"Azhikkal","11.91524","75.34761"
"Azimpur","23.7298","90.3854"
"Azkoitia","43.17744","-2.31129"
"Azle","32.89513","-97.54586"
"Aznā","33.6095","48.9307"
"Aznalcóllar","37.51914","-6.26988"
"Azogues","-2.73969","-78.8486"
"Azor","32.0243","34.80632"
"Azov","47.10779","39.41648"
"Azovo","54.69972","73.02367"
"Azpeitia","43.18246","-2.26693"
"Azrou","33.43443","-5.22126"
"Aztec","36.82223","-107.99285"
"Azua","18.45319","-70.7349"
"Azuaga","38.26667","-5.68333"
"Azul","-36.77698","-59.85854"
"Azuqueca de Henares","40.56566","-3.26753"
"Azusa","34.13362","-117.90756"
"Azzaba","36.73944","7.10528"
"Azzano Decimo","45.90937","12.6642"
"Azzano San Paolo","45.65798","9.67305"
"Az̧ Z̧āhirīyah","31.40967","34.97329"
"Az̧ Z̧a‘āyin","25.57744","51.48306"
"Ba","-17.5343","177.67407"
"Baabda","33.83389","35.54417"
"Baalbek","34.00583","36.21806"
"Baao","13.4549","123.3653"
"Baar","47.19625","8.52954"
"Baardheere","2.34464","42.27644"
"Baarlo","51.33083","6.09444"
"Baarn","52.21167","5.2875"
"Bab Ezzouar","36.72615","3.18291"
"Babadag","44.9","28.71667"
"Babaeski","41.4325","27.09306"
"Babahoyo","-1.80217","-79.53443"
"Babana","10.42949","3.81495"
"Babanki","6.11667","10.25"
"Babat","-7.11282","112.16354"
"Babati","-4.21667","35.75"
"Babatngon","11.4238","124.8449"
"Babayevo","59.3936","35.9371"
"Babayurt","43.6002","46.77888"
"Babenhausen","48.14497","10.25325"
"Baberu","25.54711","80.70443"
"Babīna","25.23947","78.47028"
"Babo-Pangulo","15.08333","120.51667"
"BABOR - VILLE","36.48994","5.5393"
"Babrāla","28.26419","78.4056"
"Babruysk","53.1384","29.2214"
"Babu","24.41667","111.51667"
"Babugarh","28.72353","77.84677"
"Babura","12.77256","9.01525"
"Babushkin","55.86931","37.72966"
"Babylon","40.69566","-73.32568"
"Bacabal","-4.29167","-44.79167"
"Bacacay","13.2934","123.7919"
"Bacag","15.93","120.58222"
"Bacalar","18.68109","-88.39333"
"Bacarra","18.2529","120.6125"
"Bacău","46.56718","26.91384"
"Bacchus Marsh","-37.67268","144.43829"
"Bachajón","17.03963","-92.18986"
"Bachatskiy","54.2927","86.1285"
"Bachhraon","28.92694","78.23456"
"Bachhrāwān","26.4709","81.1158"
"Bachi-Yurt","43.22417","46.19423"
"Baciu","46.8","23.51667"
"Back Mountain","41.33591","-75.99631"
"Backnang","48.94743","9.43718"
"Bacliff","29.5069","-94.99243"
"Bacobampo","26.98239","-109.6535"
"Bacoli","40.79672","14.07349"
"Bacolod","8.11667","123.91667"
"Bacolod City","10.66667","122.95"
"Bacon","13.03778","124.04111"
"Bacong","9.2464","123.2956"
"Bacoor","14.45903","120.92903"
"Bacuag","9.60806","125.63889"
"Baculongan","16.8","120.8333"
"Bacup","53.70336","-2.2007"
"Bacuyangan","9.637","122.4721"
"Bad Abbach","48.93754","12.04494"
"Bad Aibling","47.8638","12.01055"
"Bad Arolsen","51.37982","9.01445"
"Bad Belzig","52.14184","12.59272"
"Bad Bentheim","52.30066","7.15763"
"Bad Bergzabern","49.10245","8.00092"
"Bad Berka","50.89982","11.28245"
"Bad Berleburg","51.05224","8.39227"
"Bad Bevensen","53.07923","10.58129"
"Bad Birnbach","48.44489","13.09103"
"Bad Blankenburg","50.68189","11.27369"
"Bad Bramstedt","53.9183","9.88424"
"Bad Breisig","50.50523","7.28861"
"Bad Brückenau","50.30853","9.78985"
"Bad Camberg","50.29695","8.26896"
"Bad Doberan","54.10712","11.90051"
"Bad Driburg","51.73297","9.01969"
"Bad Düben","51.59174","12.58492"
"Bad Dürkheim","49.4618","8.17236"
"Bad Dürrenberg","51.29545","12.06583"
"Bad Dürrheim","48.02093","8.53056"
"Bad Ems","50.33544","7.71369"
"Bad Endbach","50.75","8.5"
"Bad Endorf","47.90901","12.29795"
"Bad Essen","52.31667","8.33333"
"Bad Fallingbostel","52.86641","9.69558"
"Bad Feilnbach","47.77331","12.00973"
"Bad Frankenhausen","51.35609","11.09977"
"Bad Freienwalde","52.7873","14.0304"
"Bad Füssing","48.351","13.312"
"Bad Gandersheim","51.87167","10.02537"
"Bad Griesbach","48.45181","13.19329"
"Bad Hall","48.03832","14.20773"
"Bad Harzburg","51.88268","10.56157"
"Bad Herrenalb","48.79787","8.43617"
"Bad Hersfeld","50.87197","9.70891"
"Bad Homburg vor der Höhe","50.22683","8.61816"
"Bad Honnef","50.64336","7.2278"
"Bad Hönningen","50.51689","7.31195"
"Bad Iburg","52.1549","8.04216"
"Bad Kissingen","50.20228","10.07784"
"Bad König","49.7432","9.0075"
"Bad Königshofen im Grabfeld","50.30082","10.46887"
"Bad Kösen","51.13431","11.72203"
"Bad Kreuznach","49.8414","7.86713"
"Bad Laasphe","50.93139","8.42502"
"Bad Laer","52.1","8.08333"
"Bad Langensalza","51.10771","10.646"
"Bad Lauchstädt","51.38652","11.86956"
"Bad Lausick","51.14495","12.64449"
"Bad Lauterberg im Harz","51.63272","10.47031"
"Bad Liebenwerda","51.51826","13.39459"
"Bad Liebenzell","48.77427","8.72971"
"Bad Lippspringe","51.78333","8.81683"
"Bad Lobenstein","50.45223","11.6393"
"Bad Marienberg","50.64947","7.94958"
"Bad Mergentheim","49.4925","9.77361"
"Bad Münder am Deister","52.19551","9.46421"
"Bad Münstereifel","50.55667","6.76424"
"Bad Nauheim","50.36463","8.73859"
"Bad Nenndorf","52.33703","9.37904"
"Bad Neuenahr-Ahrweiler","50.54322","7.1113"
"Bad Neustadt an der Saale","50.32174","10.20673"
"Bad Oeynhausen","52.20699","8.80365"
"Bad Oldesloe","53.81167","10.37417"
"Bad Orb","50.22788","9.34782"
"Bad Pyrmont","51.98589","9.25246"
"Bad Ragaz","47.00601","9.50266"
"Bad Rappenau","49.23848","9.1018"
"Bad Reichenhall","47.72947","12.87819"
"Bad Rothenfelde","52.11667","8.16667"
"Bad Sachsa","51.59499","10.55546"
"Bad Säckingen","47.55371","7.94612"
"Bad Salzdetfurth","52.05777","10.0058"
"Bad Salzuflen","52.0862","8.74434"
"Bad Salzungen","50.81342","10.2361"
"Bad Sassendorf","51.58333","8.16667"
"Bad Schlema","50.60257","12.67288"
"Bad Schussenried","48.00468","9.65741"
"Bad Schwalbach","50.14196","8.06964"
"Bad Schwartau","53.91887","10.69691"
"Bad Segeberg","53.94313","10.30215"
"Bad Soden am Taunus","50.1408","8.50449"
"Bad Soden-Salmünster","50.27574","9.36705"
"Bad Sooden-Allendorf","51.27092","9.97483"
"Bad Staffelstein","50.10199","11.00128"
"Bad Tölz","47.76111","11.5589"
"Bad Urach","48.49107","9.40009"
"Bad Vilbel","50.17866","8.73756"
"Bad Vöslau","47.96533","16.21359"
"Bad Waldsee","47.92027","9.7549"
"Bad Wildbad","48.75071","8.5504"
"Bad Wildungen","51.11963","9.12475"
"Bad Wimpfen","49.22971","9.15648"
"Bad Windsheim","49.50274","10.41539"
"Bad Wörishofen","48.00674","10.59666"
"Bad Wurzach","47.90799","9.89686"
"Bad Zwischenahn","",""
"Bada","51.391","109.86145"
"Bada Barabīl","22.11186","85.38684"
"Badagara","11.59776","75.58142"
"Badagry","6.41502","2.88132"
"Badajoz","38.87789","-6.97061"
"Badak","6.84722","124.72056"
"Badalona","41.45004","2.24741"
"Badamdar","40.34024","49.8045"
"Badarganj","25.67419","89.05377"
"Badarpur","24.86852","92.59606"
"Badarwās","24.97516","77.5649"
"Baddi","30.95783","76.79136"
"Baddomalhi","31.99042","74.6641"
"Badeggi","9.0563","6.143"
"Baden","47.47333","8.30592"
"Baden-Baden","48.7606","8.23975"
"Badger","64.8","-147.53333"
"Badhni Kalān","30.6813","75.29087"
"Badia Polesine","45.09508","11.49443"
"Badin","24.656","68.837"
"Badīyah","22.45","58.8"
"Badlapur","19.15516","73.26553"
"Badnāwar","23.02181","75.23268"
"Badou","7.58333","0.6"
"Badovinci","44.78534","19.37146"
"Badr Ḩunayn","23.78292","38.79047"
"Badulla","6.9802","81.0577"
"Badūria","22.74431","88.78655"
"Badvel","14.7451","79.06288"
"Bady Bassitt","-20.91806","-49.44528"
"Baekrajan","-6.7674","110.8541"
"Baena","37.6167","-4.32245"
"Baependi","-21.95889","-44.89"
"Baesweiler","50.90964","6.18874"
"Baeza","37.99384","-3.47103"
"Bafang","5.15705","10.1771"
"Bafatá","12.16583","-14.66167"
"Baffa","34.4377","73.22368"
"Bafia","4.75","11.23333"
"Bafilo","9.35","1.26667"
"Bafoulabé","13.8065","-10.8321"
"Bafoussam","5.47775","10.41759"
"Bafra","41.56778","35.90694"
"Bagaha","24.52898","85.06019"
"Bagalkot","16.18673","75.69614"
"Bagamoyo","-6.44222","38.90422"
"Bagan","54.10014","77.66462"
"Bagan Serai","5.0108","100.54101"
"Baganga","7.57389","126.56"
"Bagar","28.18784","75.50012"
"Bagarji","27.75431","68.75866"
"Bagasra","21.48719","70.95516"
"Bagayevskaya","47.32411","40.38791"
"Bagdogra","26.69929","88.31177"
"Bagé","-31.33139","-54.10694"
"Bagerhat","22.65657","89.79123"
"Baggabag B","16.50588","121.19014"
"Baghdad","33.34058","44.40088"
"Bagheria","38.07892","13.51237"
"Baghlān","36.13068","68.70829"
"Bagnacavallo","44.41402","11.97813"
"Bagnara Calabra","38.28778","15.80591"
"Bagnères-de-Bigorre","43.06416","0.1497"
"Bagnes","46.08333","7.21667"
"Bagneux","48.79565","2.30796"
"Bagni di Tivoli","41.95","12.71667"
"Bagno a Ripoli","43.75115","11.32252"
"Bagnolet","48.86667","2.41667"
"Bagnoli","40.81322","14.16807"
"Bagnolo in Piano","44.76437","10.67358"
"Bagnolo Mella","45.42765","10.18638"
"Bagnols-sur-Cèze","44.1599","4.61776"
"Bago","17.33521","96.48135"
"Bago City","10.53333","122.83333"
"Bagong Pagasa","14.6627","121.0328"
"Bagong Sikat","12.36745","121.06171"
"Bagontapay","6.85889","124.90889"
"Bagra","23.73333","86.31667"
"Bagrationovsk","54.38714","20.64372"
"Bagshot","51.36069","-0.68802"
"Bagua Grande","-5.75611","-78.44111"
"Bagudo","11.40351","4.22571"
"Baguim do Monte","41.19203","-8.54118"
"Baguio","16.41639","120.59306"
"Bagulā","23.33664","88.64109"
"Bah-Bah","8.60722","125.91444"
"Bahādurganj","26.26172","87.82443"
"Bahādurgarh","28.69287","76.93555"
"Bahār","34.9072","48.4414"
"Baharampur","24.10473","88.25155"
"Baharly","38.43624","57.43158"
"Bahau","2.8079","102.4049"
"Bahawalnagar","30.55083","73.39083"
"Bahawalpur","29.39779","71.6752"
"Bahay Pare","15.03238","120.88083"
"Bahçe","37.19724","36.57658"
"Bahçecik","40.6681","29.91478"
"Bahçelievler","41.00231","28.8598"
"Baheri","28.77416","79.4974"
"Bahía Blanca","-38.71959","-62.27243"
"Bahía de Caráquez","-0.59792","-80.42367"
"Bahía de Kino","28.82278","-111.94083"
"Bahía Honda","22.90332","-83.15994"
"Bahir Dar","11.59364","37.39077"
"Bahjoi","28.39502","78.62659"
"Bahlā’","22.97886","57.3047"
"Bahraigh","27.57429","81.59474"
"Bahsūma","29.20063","77.97221"
"Bahua","25.83942","80.62255"
"Bahula","23.65176","87.16475"
"Baia","47.41667","26.21667"
"Baia Mare","47.65729","23.56808"
"Baia Sprie","47.66189","23.69215"
"Baião","41.16273","-8.0347"
"Baicheng","45.60746","122.82076"
"Baidoa","3.11383","43.6498"
"Baidyabāti","22.78498","88.32586"
"Baie-Comeau","49.21679","-68.14894"
"Baie-Mahault","16.26738","-61.58543"
"Baie-Saint-Paul","47.44109","-70.49858"
"Baienfurt","47.82857","9.65157"
"Baiersbronn","48.50318","8.37699"
"Baiersdorf","49.65807","11.03594"
"Baihar","22.10133","80.54967"
"Baihe","22.1343","107.232"
"Baijiantan","45.69298","85.13942"
"Baikonur","45.61667","63.31667"
"Baikunthpur","24.72768","81.40975"
"Bail-Hongal","15.8137","74.85895"
"Baildon","53.84711","-1.78785"
"Bailén","38.09639","-3.77786"
"Baileys Crossroads","38.85039","-77.1297"
"Baillargues","43.66267","4.01681"
"Baille","43.2877","5.39804"
"Bailleul","50.73592","2.73594"
"Baillif","16.02037","-61.74611"
"Bain-de-Bretagne","47.84418","-1.68486"
"Bainbridge","30.9038","-84.57547"
"Bainbridge Island","47.62621","-122.52124"
"Baiona","42.11667","-8.85"
"Baiquan","47.60605","126.08481"
"Bairāgnia","26.74063","85.27323"
"Bairnsdale","-37.82289","147.61041"
"Bais","9.59111","123.12278"
"Baise City","23.89972","106.61333"
"Baishan","41.93853","126.41965"
"Baishishan","43.58333","127.56667"
"Baissa","7.23087","10.62444"
"Baiti","-0.50803","166.92945"
"Baixa Grande","-11.95972","-40.16806"
"Baixo Guandu","-19.51889","-41.01583"
"Baiyin","36.54696","104.17023"
"Baj Baj","22.47514","88.17767"
"Baja","46.18299","18.95307"
"Bajina Bašta","43.97083","19.5675"
"Bajos de Chila","15.92343","-97.12113"
"Bajos de Haina","18.41538","-70.03317"
"Bajos del Ejido","16.96086","-99.97169"
"Bakal","54.9417","58.8083"
"Bakaly","55.17889","53.80278"
"Bakanas","44.80838","76.27214"
"Bakāni","24.28624","76.23709"
"Bakau","13.47806","-16.68194"
"Bakchar","57.01861","82.07111"
"Baker","30.58824","-91.16816"
"Baker City","44.77487","-117.83438"
"Bakersfield","35.37329","-119.01871"
"Bakewar","26.66226","79.17625"
"Bakhchysarai","44.75525","33.85782"
"Bakhmach","51.18144","32.83463"
"Bakhmut","48.59559","37.99987"
"Bakhtiyārpur","25.46179","85.53179"
"Baki","9.89206","43.38531"
"Bakıxanov","40.41894","49.96693"
"Baklan","37.97694","29.60861"
"Bako","5.78333","36.56667"
"Bakori","11.55559","7.42419"
"Bakri","2.0441","102.6527"
"Baksan","43.68806","43.53694"
"Baksanenok","43.68972","43.65472"
"Bakshwāho","24.25106","79.28618"
"Baku","40.37767","49.89201"
"Bakum","52.74118","8.19546"
"Bala-Cynwyd","40.00761","-75.23407"
"Balabac","7.98363","117.04868"
"Balabanovo","55.18161","36.6606"
"Balaclava","",""
"Balad","34.01485","44.14574"
"Balagtas","14.81667","120.86667"
"Balaguer","41.79117","0.81094"
"Balaipungut","1.05949","101.29054"
"Balaka","-14.97928","34.95575"
"Balakhani","40.46344","49.91893"
"Balakhta","55.38425","91.61872"
"Balakirevo","56.50588","38.84324"
"Balaklava","44.51118","33.59942"
"Balakliya","49.4627","36.85951"
"Balakovo","52.02782","47.8007"
"Balally","53.27504","-6.23594"
"Balamban","10.5039","123.7156"
"Balancán","17.80903","-91.53682"
"Balanga","14.67611","120.53611"
"Balangiga","11.10972","125.3875"
"Balāngīr","20.70419","83.49029"
"Baláo","-2.911","-79.81441"
"Balapulang","-7.04858","109.10056"
"Balarāmpur","23.09714","86.22292"
"Balaruc-les-Bains","43.4417","3.6778"
"Balashikha","55.80945","37.95806"
"Balashov","51.5502","43.1667"
"Balasore","21.49266","86.93348"
"Balassagyarmat","48.07296","19.29614"
"Balāţah","32.21207","35.28561"
"Balatonalmádi","47.03526","18.02076"
"Balatonboglár","46.77525","17.64415"
"Balatonfüred","46.96188","17.87187"
"Balayan","13.93714","120.73224"
"Balboa","2.04183","-77.21646"
"Balbriggan","53.60846","-6.1831"
"Balcani","46.63333","26.55"
"Balcatta","-31.87501","115.82839"
"Balch Springs","32.72874","-96.62277"
"Balchik","43.42166","28.15848"
"Bald Hills","-27.32112","153.00857"
"Baldeogarh","24.75619","79.06715"
"Baldev","27.40684","77.82214"
"Baldock","51.98781","-0.18835"
"Baldone","56.74451","24.40078"
"Baldoyle","53.39972","-6.12583"
"Baldwin","40.33813","-79.97894"
"Baldwin Harbor","40.63955","-73.60846"
"Baldwin Park","34.08529","-117.9609"
"Baldwinsville","43.15868","-76.33271"
"Balele","14.06532","121.09363"
"Balen","51.16837","5.17027"
"Balerno","55.88437","-3.33975"
"Balestrate","38.05125","13.00724"
"Balete","13.01917","124.03194"
"Baley","51.58166","116.63395"
"Balezino","57.9787","53.0138"
"Balfour","-26.66331","28.59016"
"Balgowlah","-33.79494","151.2572"
"Bali","25.19725","73.29117"
"Balibago","15.1624","120.5954"
"Baligang","13.1537","123.6432"
"Balıkesir","39.64917","27.88611"
"Balikpapan","-1.26753","116.82887"
"Balīlā","32.39109","35.93832"
"Balimbing","5.0825","119.96583"
"Balimila","18.25167","82.10659"
"Balingasag","8.74417","124.77694"
"Balingcanaway","15.48215","120.68543"
"Balingen","48.27525","8.85464"
"Balite Segundo","14.1832","120.97433"
"Baliton","5.74361","125.23639"
"Baliuag","14.95472","120.89694"
"Balkanabat","39.51075","54.36713"
"Balkány","47.77066","21.86314"
"Balkashino","52.51779","68.7516"
"Balkh","36.75635","66.8972"
"Balky","47.38336","34.94396"
"Ballabeg","54.1","-4.68333"
"Ballajura","-31.84062","115.89549"
"Ballālpur","19.84696","79.34578"
"Ballan-Miré","47.34057","0.61466"
"Ballancourt-sur-Essonne","48.52525","2.38604"
"Ballarat","-37.56622","143.84957"
"Ballarat Central","-37.56206","143.85082"
"Ballasalla","54.0959","-4.62962"
"Ballaugh","54.31193","-4.54456"
"Ballenger Creek","39.3726","-77.43526"
"Ballenstedt","51.719","11.23265"
"Ballerup","55.73165","12.36328"
"Ballesteros","18.4126","121.5152"
"Ballina","54.11667","-9.16667"
"Ballinasloe","53.3275","-8.21944"
"Ballingry","56.16392","-3.32841"
"Ballinteer","53.27409","-6.25397"
"Ballito","-29.53897","31.21439"
"Ballsh","40.59889","19.73472"
"Ballston Spa","43.00091","-73.84901"
"Ballwin","38.59505","-90.54623"
"Ballyboden","53.28056","-6.31639"
"Ballycastle","55.20444","-6.24298"
"Ballyclare","54.75089","-5.99944"
"Ballyfermot","53.34283","-6.3548"
"Ballymena","54.86357","-6.27628"
"Ballymoney","55.0708","-6.51009"
"Ballymun","53.39807","-6.26693"
"Ballynahinch","54.4023","-5.89717"
"Balma","43.61111","1.49944"
"Balmain","-33.85481","151.1833"
"Balmazújváros","47.61667","21.35"
"Balnearia","-31.0088","-62.66733"
"Balneário Camboriú","-26.99056","-48.63472"
"Baloc","15.6435","120.8852"
"Balod","20.73081","81.20578"
"Baloda","22.1389","82.48171"
"Baloda Bāzār","21.65678","82.16062"
"Balogo","10.8868","124.7105"
"Baloteşti","44.61667","26.11667"
"Balpyk Bī","44.90225","78.23157"
"Balqash","46.84806","74.995"
"Balrāmpur","27.42949","82.18545"
"Balş","44.35","24.1"
"Balsall Common","52.39186","-1.6504"
"Balsas","-7.5325","-46.03556"
"Balsic","14.85906","120.4824"
"Balsthal","47.31613","7.69318"
"Balta","47.93548","29.61982"
"Baltasi","56.3462","50.2062"
"Baltimore","39.29038","-76.61219"
"Baltimore Highlands","39.23316","-76.63663"
"Baltinava","56.94394","27.64401"
"Baltiysk","54.65455","19.90929"
"Baltmannsweiler","48.74215","9.4494"
"Balucuc","14.95282","120.81452"
"Balung","-7.73333","113.91667"
"Baluntaicun","42.66842","86.32424"
"Balvanera","-34.61032","-58.39766"
"Balve","51.3315","7.86424"
"Balvi","57.1313","27.26583"
"Balwyn","-37.81667","145.06667"
"Balwyn North","-37.79086","145.09386"
"Balykchy","42.46017","76.18709"
"Balykshi","47.06667","51.86667"
"Balzan","35.90028","14.455"
"Balzar","-1.36501","-79.90494"
"Balzers","47.06665","9.50251"
"Bal‘ā","32.33392","35.1116"
"Bam","29.106","58.357"
"Bama","11.52134","13.68952"
"Bamako","",""
"Bambamarca","-6.68333","-78.53333"
"Bambang","16.3865","121.1066"
"Bambanglipuro","-7.95","110.28333"
"Bambari","5.76795","20.67565"
"Bamberg","49.89873","10.90067"
"Bambolim","15.46361","73.8531"
"Bamboo Flat","11.7","92.71667"
"Bambous","-20.25667","57.40611"
"Bambuí","-20.00639","-45.97694"
"Bamenda","5.9597","10.14597"
"Bamendjou","5.38988","10.33014"
"Bamiantong","44.91738","130.52"
"Bammental","49.35611","8.77944"
"Bamna","23.09454","74.76164"
"Bamnet Narong","15.50189","101.68982"
"Bamora","24.05539","78.08925"
"Bamusso","4.4591","8.9027"
"Bamut","43.15986","45.19734"
"Ban Ao Nang","8.0458","98.81035"
"Ban Bang Kadi Pathum Thani","13.99904","100.54962"
"Ban Bueng","13.311","101.11214"
"Ban Chalong","7.84468","98.33897"
"Ban Chang","12.72543","101.05531"
"Ban Dan Lan Hoi","17.00683","99.57497"
"Ban Dung","17.699","103.25957"
"Ban Houakhoua","20.2467","100.45401"
"Ban Houayxay","20.27","100.4178"
"Ban Huai Thalaeng","14.98333","102.65"
"Ban Karon","7.84769","98.2985"
"Ban Khlong Bang Sao Thong","13.64172","100.83272"
"Ban Ko Kaeo","7.93599","98.39664"
"Ban Lam Luk Ka","13.97738","100.77776"
"Ban Mai","7.20411","100.54508"
"Ban Mo","14.61544","100.72731"
"Ban Na","17.01717","99.73283"
"Ban Na San","8.80036","99.36372"
"Ban Nam Yuen","9.87686","98.86592"
"Ban Nong Wua So","17.2675","103.22472"
"Ban Phaeo","13.59072","100.10748"
"Ban Phai","16.05997","102.73097"
"Ban Phan Don","17.14272","102.97261"
"Ban Phe","12.62824","101.43757"
"Ban Phru Nai","7.95458","98.58989"
"Ban Pong","13.81629","99.87739"
"Ban Ratsada","7.90963","98.40248"
"Ban Sam Chuk","14.74219","100.09531"
"Ban Selaphum","16.01667","103.95"
"Ban Su-ngai Pa Di","6.07239","101.87172"
"Ban Tak","17.04325","99.08128"
"Ban Talat Bueng","13.07147","101.00314"
"Ban Talat Nua","7.88489","98.38557"
"Ban Talat Yai","7.88481","98.40008"
"Ban Thai Tan","14.62161","100.48739"
"Bana","5.14655","10.27545"
"Banamba","13.54773","-7.44808"
"Bananeiras","-6.75","-35.63333"
"Banat","29.46355","77.35478"
"Banatski Karlovac","45.04987","21.018"
"Banaybanay","13.85","121.2"
"Banaz","38.73707","29.75194"
"Banbalah","35.7","10.8"
"Banbasa","28.99132","80.07608"
"Banbridge","54.35","-6.28333"
"Banbury","52.0632","-1.34222"
"Banca","46.3","27.8"
"Banchory","57.05168","-2.48824"
"Band","46.58333","24.38333"
"Banda","24.04488","78.96094"
"Banda Aceh","5.54167","95.33333"
"Bandar","2.05","99.75"
"Bandar Abbas","27.1865","56.2808"
"Bandar Labuan","5.28883","115.26924"
"Bandar Lampung","-5.42917","105.26111"
"Bandar Seri Begawan","4.89035","114.94006"
"Bandar-e Anzalī","37.47318","49.45785"
"Bandar-e Genāveh","29.5791","50.517"
"Bandar-e Lengeh","26.55792","54.88067"
"Bandarbeyla","9.4942","50.8122"
"Bandeirantes","-23.11","-50.3675"
"Banderilla","19.58893","-96.93727"
"Bandhi","26.58761","68.30215"
"Bandiagara","14.35005","-3.61038"
"Bandipura","34.41728","74.64308"
"Bandırma","40.35222","27.97667"
"Bandjoun","5.37568","10.41326"
"Bandol","43.13709","5.7316"
"Bandon","51.74694","-8.7425"
"Bandora","15.40823","73.98129"
"Bandraboua","-12.7044","45.12231"
"Bandrélé","-12.91276","45.19256"
"Bandundu","-3.31687","17.38063"
"Bandung","-6.92222","107.60694"
"Banepā","27.63245","85.52192"
"Banes","20.96116","-75.722"
"Banff","51.17622","-115.56982"
"Banfora","10.63333","-4.76667"
"Bang Ban","14.37395","100.48528"
"Bang Bo District","13.58333","100.81667"
"Bang Bua Thong","13.91783","100.42403"
"Bang Khla","13.72144","101.20814"
"Bang Krathum","16.57831","100.30034"
"Bang Kruai","13.805","100.47283"
"Bang Lamung","13.04704","100.92891"
"Bang Len","14.02188","100.17183"
"Bang Mun Nak","16.02781","100.37917"
"Bang Nam Priao","13.84739","101.05306"
"Bang Pa-in","14.22783","100.57589"
"Bang Pakong","13.54297","100.99333"
"Bang Phae","13.69157","99.92982"
"Bang Racham","14.892","100.31728"
"Bang Rakam","16.75847","100.11742"
"Bang Saphan","11.21259","99.51167"
"Bang Yai","13.84341","100.36251"
"Banga","6.42389","124.77833"
"Banganapalle","15.31771","78.22669"
"Bangangté","5.14079","10.52535"
"Bangaon","23.04553","88.83084"
"Bangar","16.8936","120.4243"
"Bangarapet","12.99116","78.17804"
"Bangassou","4.74132","22.81838"
"Bangil","-7.59939","112.8186"
"Bangjun","39.99111","117.26278"
"Bangkalan","-7.0455","112.7351"
"Bangkirohan","13.0553","123.7468"
"Bangkok","13.75398","100.50144"
"Bangolo","7.01232","-7.48639"
"Bangor","40.86565","-75.20657"
"Bangor Trident Base","47.72274","-122.71446"
"Bangui","4.36122","18.55496"
"Banhā","30.45977","31.1842"
"Baní","18.27964","-70.33185"
"Banī Mazār","28.5036","30.8004"
"Banī Na‘īm","31.51591","35.16416"
"Banī Suhaylā","31.34337","34.32337"
"Banī Suwayf","29.07441","31.09785"
"Bani Walid","31.74554","13.98354"
"Banī Zayd","32.03924","35.10316"
"Banī Zayd ash Shārqīyah","32.04935","35.16593"
"Baniachang","24.51863","91.35787"
"Banikoara","11.29845","2.43856"
"Banisilan","7.49083","124.72417"
"Banja Luka","44.77842","17.19386"
"Banjar","-7.1955","107.4313"
"Banjaran","-7.04528","107.58778"
"Banjarmasin","-3.31987","114.59075"
"Banjul","13.45274","-16.57803"
"Bankeryd","57.86021","14.124"
"Banket","-17.38333","30.4"
"Bankim","6.08303","11.4905"
"Bankra","22.60291","88.27751"
"Bankstown","-33.91667","151.03333"
"Banlung","13.73939","106.98727"
"Banmankhi","25.88857","87.19421"
"Bannalec","47.93229","-3.69759"
"Bannewitz","50.99291","13.71712"
"Banning","33.92557","-116.87641"
"Bannockburn","56.08978","-3.91092"
"Bannu","32.98527","70.60403"
"Bannūr","12.33295","76.86201"
"Banora Point","-28.21298","153.53634"
"Banovići","44.40596","18.52648"
"Banqiao","25.01427","121.46719"
"Bansalan","6.78611","125.21333"
"Bansang","13.43333","-14.65"
"Banská Bystrica","48.73946","19.15349"
"Banská Štiavnica","48.44858","18.91003"
"Bansko","41.8383","23.48851"
"Bansoa","5.44836","10.31355"
"Banstead","51.32233","-0.20685"
"Bansud","12.865","121.45639"
"Bantay","17.58472","120.38917"
"Bantayan","11.1683","123.7223"
"Bantilan","14.75814","121.66902"
"Banting","2.8136","101.50185"
"Bantogon","6.53333","124.03333"
"Bantul","-7.88806","110.32889"
"Bantvāl","12.8905","75.03489"
"Banūr","30.55407","76.71948"
"Banyo","6.75","11.81667"
"Banyoles","42.11667","2.76667"
"Banyuls de la Marenda","42.48375","3.12897"
"Banyumas","-7.51417","109.29417"
"Banyuwangi","-8.2325","114.35755"
"Baoding","38.85111","115.49028"
"Baoma","7.99344","-11.71468"
"Baoqing","46.33167","132.21111"
"Baoro","5.66667","15.96667"
"Baoshan","46.55861","131.42444"
"Baotou","40.65222","109.82222"
"Baoying","33.22917","119.30917"
"Baqubah","33.75403","44.60518"
"Baquero Norte","15.7162","120.5543"
"Bar","49.07717","27.68256"
"Bar Bigha","25.21855","85.7332"
"Bar-le-Duc","48.77275","5.16108"
"Bar-sur-Aube","48.23315","4.7064"
"Bara","10.37444","10.72884"
"Bara Bazar","22.56667","88.35"
"Bara Uchāna","29.46747","76.17798"
"Barabai","-2.58333","115.38333"
"Barabinsk","55.35709","78.35697"
"Baraboo","43.47109","-89.74429"
"Baracatan","6.9675","125.41583"
"Baracoa","15.76667","-87.85"
"Barāgaon","25.42936","82.81709"
"Baraguá","21.68216","-78.62567"
"Barahan","13.0121","120.762"
"Barajas de Madrid","40.47366","-3.57777"
"Barakaldo","43.29639","-2.98813"
"Barakani","-12.13861","44.43026"
"Baraki","36.66655","3.09606"
"Baraki Barak","33.96744","68.9492"
"Baranagar","22.64132","88.37727"
"Barañáin","42.80567","-1.67731"
"Baranchinskiy","58.1617","59.6991"
"Baranivka","50.29691","27.6622"
"Barano d'Ischia","40.71472","13.92522"
"Baranoa","10.79408","-74.9164"
"Baranovichi","53.1327","26.0139"
"Baranzate","45.52717","9.11724"
"Baran’","54.4784","30.3159"
"Barão de Cocais","-19.94583","-43.48722"
"Baraolt","46.07514","25.60029"
"Baras","14.51691","121.2658"
"Barauli","26.38109","84.58648"
"Baraúna","-5.08","-37.61667"
"Baraut","29.10199","77.26334"
"Barbacena","-21.22583","-43.77361"
"Barbacha","36.56667","4.96667"
"Barbacoas","1.67154","-78.13978"
"Barbalha","-7.31111","-39.30417"
"Barbastro","42.03565","0.12686"
"Barbate","36.19237","-5.92186"
"Barberà del Vallès","41.5159","2.12457"
"Barberaz","45.55","5.93333"
"Barberena","14.30944","-90.36111"
"Barberino di Mugello","43.9993","11.23676"
"Barberton","-25.78842","31.05319"
"Barbezieux-Saint-Hilaire","45.47265","-0.15218"
"Barbil","22.10194","85.37752"
"Barbosa","5.93168","-73.61507"
"Barcarena","38.73245","-9.28"
"Barcea","45.75","27.46667"
"Barcellona Pozzo di Gotto","38.14772","15.21469"
"Barcelona","10.13625","-64.68618"
"Barceloneta","18.4505","-66.53851"
"Barcelos","41.53174","-8.61843"
"Barcin","52.86607","17.94625"
"Barclayville","4.67443","-8.23306"
"Barcs","45.96","17.45861"
"Barczewo","53.83055","20.69112"
"Barda","56.9287","55.5962"
"Bardaï","21.35494","17.00121"
"Bardaskan","35.26218","57.97075"
"Barddhamān","23.25572","87.85691"
"Bardejov","49.29175","21.27271"
"Bardowick","53.29354","10.38811"
"Bardsīr","29.92266","56.57433"
"Bardstown","37.80923","-85.4669"
"Bareggio","45.47927","8.99789"
"Bareilly","28.36678","79.43167"
"Barela","23.09678","80.05084"
"Barendrecht","51.85667","4.53472"
"Barentin","49.54533","0.95515"
"Barentu","15.10582","37.59067"
"Bargaal","11.28636","51.0773"
"Bargarh","21.33348","83.61905"
"Bargas","39.94113","-4.01979"
"Bargeres","52.76152","6.88145"
"Bargersville","39.52088","-86.16777"
"Barghāt","22.03065","79.7328"
"Bargi","22.99138","79.8755"
"Bargoed","51.68333","-3.23333"
"Bargteheide","53.72856","10.26695"
"Barguzin","53.61875","109.63904"
"Barhi","23.90326","80.81516"
"Barhiya","25.28814","86.02055"
"Bari","41.12066","16.86982"
"Bari Sādri","24.41339","74.47331"
"Bariadi","-2.8","33.98333"
"Bariārpur","25.28791","86.57643"
"Barič","44.6507","20.25941"
"Barika","35.38901","5.36584"
"Barili","10.115","123.5103"
"Barillas","15.80361","-91.31583"
"Barinas","8.62261","-70.20749"
"Baringo","0.46667","35.96667"
"Barinitas","8.76171","-70.41199"
"Bariri","-22.07444","-48.74028"
"Barisāl","22.70497","90.37013"
"Barjala","23.6182","91.35596"
"Barjora","23.42754","87.29037"
"Barkā Kānā","23.62118","85.46748"
"Barkā’","23.67872","57.88605"
"Barkhan","29.89773","69.52558"
"Barkhera Kalān","28.45209","79.80655"
"Barki Saria","24.17594","85.88938"
"Barking","51.53333","0.08333"
"Barkly West","-28.53537","24.52151"
"Barkot","30.80861","78.20596"
"Barlassina","45.65558","9.12878"
"Barleben","52.20193","11.6177"
"Barletta","41.31429","16.28165"
"Barlig","17.03725","121.10384"
"Barlin","50.45238","2.61955"
"Barlinek","52.99464","15.21864"
"Barma","8.34959","-11.33059"
"Barmbek-Nord","53.6052","10.03988"
"Barmstedt","53.79209","9.76739"
"Barnāla","30.37451","75.5487"
"Barnard Castle","54.5415","-1.919"
"Barnaul","53.36056","83.76361"
"Barnesville","33.05457","-84.15575"
"Barnet","51.65","-0.2"
"Barneveld","52.14","5.58472"
"Barnham","50.8312","-0.63789"
"Barnhart","38.34422","-90.39345"
"Barnoldswick","53.91711","-2.18705"
"Barnsbury","51.54067","-0.11675"
"Barnsley","53.55","-1.48333"
"Barnstable","41.70011","-70.29947"
"Barnstaple","51.08022","-4.05808"
"Barnstorf","52.71009","8.50256"
"Barnt Green","52.35902","-2.00715"
"Barntrup","51.99038","9.11642"
"Baro","8.61565","6.4185"
"Barobo","8.53528","126.12139"
"Baronissi","40.74817","14.7738"
"Barotac Nuevo","10.89417","122.70444"
"Barotac Viejo","11.04194","122.85222"
"Barpāli","21.19005","83.58721"
"Barpathār","26.28709","93.88844"
"Barpeta","26.32293","91.00632"
"Barpeta Road","26.50284","90.96937"
"Barquisimeto","10.0647","-69.35703"
"Barr","48.40755","7.44873"
"Barra","8.51028","124.60444"
"Barra Bonita","-22.49472","-48.55806"
"Barra da Estiva","-13.62611","-41.32694"
"Barra de Santo Antônio","-9.40472","-35.50722"
"Barra de São Francisco","-18.755","-40.89083"
"Barra do Bugres","-15.0725","-57.18111"
"Barra do Corda","-5.50556","-45.24333"
"Barra do Garças","-15.89","-52.25667"
"Barra do Piraí","-22.47","-43.82556"
"Barra dos Coqueiros","-10.90889","-37.03861"
"Barra Mansa","-22.54417","-44.17139"
"Barra Velha","-26.63222","-48.68472"
"Barracas","-34.64966","-58.38341"
"Barrack Heights","-34.56464","150.85692"
"Barrafranca","37.3785","14.2027"
"Barranca","-10.75","-77.76667"
"Barrancabermeja","7.06528","-73.85472"
"Barrancas","10.95672","-72.79456"
"Barranco de Loba","8.94597","-74.10647"
"Barranqueras","-27.48132","-58.93925"
"Barranquilla","10.96854","-74.78132"
"Barranquitas","18.18662","-66.30628"
"Barras","-4.24444","-42.29444"
"Barre","44.19701","-72.50205"
"Barreiras","-12.15278","-44.99"
"Barreirinha","-2.79333","-57.07"
"Barreirinhas","-2.75556","-42.82591"
"Barreiro","38.66314","-9.0724"
"Barreiro do Jaíba","-15.61532","-43.59187"
"Barreiros","-8.81833","-35.18639"
"Barretos","-20.55722","-48.56778"
"Barrhead","55.79916","-4.39285"
"Barri de les Corts","41.38697","2.13472"
"Barri de Sant Andreu","41.43693","2.19022"
"Barri Gòtic","41.38364","2.17628"
"Barrie","44.40011","-79.66634"
"Barrigada Village","13.46913","144.79901"
"Barrington","41.74066","-71.30866"
"Barrinha","-21.19361","-48.16389"
"Barrio de México","19.2825","-99.82833"
"Barro","-6.71667","-38.86667"
"Barro Alto","-11.76083","-41.91167"
"Barroquinha","-3.01889","-41.13611"
"Barros Blancos","-34.7524","-56.00259"
"Barrosas","41.35534","-8.29943"
"Barroso","-21.18694","-43.97583"
"Barrouallie","13.23676","-61.27275"
"Barrow in Furness","54.11094","-3.22758"
"Barrow upon Soar","52.75178","-1.14601"
"Barrowford","53.8465","-2.21838"
"Barry","51.39979","-3.2838"
"Barsāna","47.81667","24.06667"
"Barsbüttel","53.56667","10.16667"
"Barßel","53.16981","7.75012"
"Barsinghausen","52.3","9.45"
"Barsovo","61.16667","73.16667"
"Barstow","34.89859","-117.02282"
"Barstow Heights","34.86971","-117.05615"
"Barsukovskaya","44.7632","41.8191"
"Barth","54.36346","12.72491"
"Bartica","6.40799","-58.62192"
"Bartın","41.63583","32.3375"
"Bartlesville","36.74731","-95.98082"
"Bartlett","41.99503","-88.18563"
"Bartley Green","52.43532","-1.99707"
"Bartolomé Masó","20.16635","-76.94291"
"Barton upon Humber","53.68915","-0.44377"
"Bartonville","40.65032","-89.65205"
"Bartoszyce","54.25354","20.80819"
"Bartow","27.89641","-81.84314"
"Barueri","-23.51056","-46.87611"
"Barugo","11.32417","124.73833"
"Baruta","10.43424","-66.87558"
"Baruun-Urt","46.68056","113.27917"
"Barvinkove","48.9097","37.02051"
"Barwādih","23.8478","84.11049"
"Barwāla","29.36747","75.90809"
"Barwāni","22.03232","74.89982"
"Barysaw","54.2279","28.505"
"Barysh","53.65533","47.11229"
"Baryshevo","54.9564","83.1822"
"Baryshivka","50.36098","31.32173"
"Barzanò","45.73257","9.3136"
"Basarabeasca","46.3317","28.96365"
"Basauri","43.2397","-2.8858"
"Basavakalyān","17.87445","76.94972"
"Basavana Bāgevādi","16.57278","75.97252"
"Basco","20.44865","121.97017"
"Basehor","39.14167","-94.93858"
"Basel","47.55839","7.57327"
"Basey","11.28205","125.06986"
"Basford","52.96667","-1.18333"
"Bashanet","-4.23333","35.41667"
"Bashmakovo","53.21329","43.0342"
"Bashtanka","47.40719","32.43868"
"Basi","26.8315","76.04856"
"Basiawan","6.53417","125.48694"
"Basiglio","45.35917","9.15855"
"Basildon","51.56844","0.45782"
"Basingstoke","51.26249","-1.08708"
"Basirpur","30.57759","73.83912"
"Baskil","38.56866","38.81634"
"Basmat","19.32872","77.15746"
"Basmat Ṭab‘ūn","32.73898","35.15716"
"Basna","21.27885","82.8267"
"Basni","27.17232","73.64519"
"Basoko","1.23909","23.61598"
"Basotu","-4.36667","35.08333"
"Basrah","30.50852","47.7804"
"Bassano del Grappa","45.76656","11.72739"
"Bassar","9.25025","0.78213"
"Basse Lasne","50.69503","4.49218"
"Basse Santa Su","13.30995","-14.21373"
"Basse-Goulaine","47.21167","-1.46748"
"Basse-Nendaz","46.18993","7.31209"
"Basse-Terre","15.99714","-61.73214"
"Bassendean","-31.90906","115.9437"
"Bassenge","50.75883","5.60989"
"Bassens","44.90226","-0.51631"
"Bassersdorf","47.44342","8.62851"
"Basseterre","17.2955","-62.72499"
"Bassila","9.00814","1.6654"
"Bassum","52.85059","8.72791"
"Bastī","26.78817","82.71617"
"Bastia","42.70278","9.45"
"Bastia umbra","43.06425","12.54612"
"Bastogne","50.00347","5.71844"
"Bastos","-21.92194","-50.73389"
"Bastrop","30.11049","-97.31527"
"Basud","14.065","122.9642"
"Baswa","27.14955","76.58345"
"Basyūn","30.93976","30.81338"
"Bat Khela","34.6178","71.97247"
"Bat Yam","32.02379","34.75185"
"Bata","1.86391","9.76582"
"Batabanó","22.71794","-82.28965"
"Batac City","18.0554","120.56489"
"Bataiporã","-22.29528","-53.27111"
"Batal","16.6875","121.60083"
"Batalha","39.66025","-8.82475"
"Batam","1.14937","104.02491"
"Batamshinskiy","50.56022","58.27715"
"Batang","-6.4846","110.7083"
"Batang Berjuntai","3.38333","101.41667"
"Batangafo","7.30082","18.2833"
"Batangas","13.7567","121.0584"
"Batarasa","8.67335","117.62795"
"Batatais","-20.89111","-47.585"
"Batavia","42.99812","-78.18752"
"Bataysk","47.13975","39.75181"
"Bateau Bay","-33.38334","151.46671"
"Batemans Bay","-35.70658","150.17541"
"Batesburg-Leesville","33.91014","-81.53733"
"Batesville","34.3115","-89.94426"
"Bath","42.33702","-77.31776"
"Bath Beach","40.60455","-74.00431"
"Bathgate","55.90204","-3.64398"
"Bathinda","30.20747","74.93893"
"Bathsheba","13.21133","-59.52596"
"Bathurst","47.61814","-65.65112"
"Batibo","5.8358","9.8553"
"Batié","9.88333","-2.91667"
"Batikent","39.96833","32.73083"
"Batken","40.06259","70.81939"
"Batley","53.70291","-1.6337"
"Batman","37.88738","41.13221"
"Batna","35.55597","6.17414"
"Bato","7.04306","125.47306"
"Batobalane","14.23333","122.75"
"Batobato","6.82522","126.08458"
"Baton Rouge","30.44332","-91.18747"
"Batouri","4.43333","14.36667"
"Batroûn","34.25528","35.65806"
"Batsari","12.75551","7.24809"
"Battagram","34.67719","73.02329"
"Battambang","13.10271","103.19822"
"Battaramulla South","6.8964","79.9181"
"Battenberg","51.01391","8.64603"
"Battersea","51.47475","-0.15547"
"Batticaloa","7.7102","81.6924"
"Battipaglia","40.60861","14.98209"
"Battle","50.91732","0.48417"
"Battle Creek","42.3173","-85.17816"
"Battle Ground","45.78095","-122.53343"
"Battlefield","37.11561","-93.37019"
"Battonya","46.28333","21.01667"
"Batu","-7.87","112.52833"
"Batu Arang","3.31667","101.46667"
"Batu Berendam","2.2487","102.246"
"Batu Feringgi","5.4709","100.24529"
"Batu Gajah","4.46916","101.04107"
"Batu Pahat","1.8548","102.9325"
"Batufe","37.17454","43.01233"
"Batumi","41.64228","41.63392"
"Baturaden","-7.3","109.21667"
"Baturaja","-4.12891","104.16695"
"Baturité","-4.32861","-38.88472"
"Batyrevo","55.0675","47.61111"
"Beāwar","26.10119","74.32028"
"Bečej","45.61632","20.03331"
"Beeliar","-32.13339","115.80637"
"Beelitz","52.23812","12.9714"
"Beenleigh","-27.71137","153.2029"
"Beerfelden","49.56858","8.97444"
"Beernem","51.13981","3.33896"
"Beerse","51.31927","4.85304"
"Beersel","50.76589","4.3002"
"Beersheba","31.25181","34.7913"
"Beeskow","52.17291","14.24597"
"Beeville","28.40095","-97.74974"
"Begamganj","23.59917","78.34064"
"Begampur","22.7307","88.25764"
"Begijnendijk","51.01942","4.78377"
"Begoro","6.38706","-0.37738"
"Begowāl","31.61152","75.52135"
"Begowala","32.43816","74.26794"
"Begues","41.33333","1.93333"
"Begūn","",""
"Begusarai","25.41853","86.13389"
"Behat","30.1718","77.6139"
"Behbahān","30.5959","50.2417"
"Behompy","-23.25","43.85"
"Behren-lès-Forbach","49.16949","6.93933"
"Behror","27.88832","76.28108"
"Behshahr","36.69235","53.55262"
"Beibei","29.82739","106.43645"
"Beicang","39.2357","117.12262"
"Beichengqu","40.43944","113.15361"
"Beidaihehaibin","39.82222","119.51806"
"Beidao","34.56861","105.89333"
"Beighton","53.33333","-1.33333"
"Beihai","21.48333","109.1"
"Beihuaidian","39.25854","117.56378"
"Beijing","39.9075","116.39723"
"Beilen","52.86333","6.51389"
"Beilstein","49.0414","9.3137"
"Beïnamar","8.6698","15.3813"
"Beinasco","45.02472","7.58564"
"Beipiao","41.79194","120.77917"
"Beira","-19.84361","34.83889"
"Beirut","33.89332","35.50157"
"Beit Jann","32.96464","35.38152"
"Beitbridge","",""
"Beith","55.74923","-4.6368"
"Beiuş","46.66667","22.35"
"Bei’an","48.26667","126.6"
"Beja","36.72564","9.18169"
"Bejaïa","36.75587","5.08433"
"Bejubang Dua","-1.7923","103.3167"
"Bejucal","22.92861","-82.38861"
"Bekalta","35.61739","10.99466"
"Bekasi","-6.2349","106.9896"
"Bekkevoort","50.94074","4.969"
"Bekobod","40.22083","69.26972"
"Bekondo","4.6819","9.3214"
"Bekovo","52.46632","43.71199"
"Bektemir","41.20972","69.33417"
"Bel Air","39.53594","-76.34829"
"Bel Air North","39.55429","-76.37309"
"Bel Air Rivière Sèche","-20.25777","57.74976"
"Bel Air South","39.50506","-76.31977"
"Bel Ombre","-4.61667","55.41667"
"Bela","26.22718","66.31178"
"Bela Crkva","44.8975","21.41722"
"Bela Cruz","-3.05056","-40.16778"
"Bela Vista","-22.10889","-56.52111"
"Bela Vista de Goiás","-16.97278","-48.95333"
"Bela Vista do Paraíso","-22.99667","-51.19056"
"Belaguntha","19.88249","84.63801"
"Belalcázar","4.99528","-75.81278"
"Belas","38.7767","-9.26353"
"Belawan","3.7755","98.6832"
"Belaya Glina","46.07802","40.86651"
"Belaya Kalitva","48.18585","40.77424"
"Belaya Kholunitsa","58.84","50.85278"
"Belceşti","47.3","27.08333"
"Beldānga","23.93428","88.26018"
"Belding","43.09781","-85.22891"
"Belebey","54.11667","54.11667"
"Beledweyne","4.73583","45.20361"
"Belek","36.86278","31.05556"
"Belen","34.66284","-106.77642"
"Belene","43.64594","25.12627"
"Belfast","-25.68991","30.03504"
"Belfield","-33.90354","151.08467"
"Belford Roxo","-22.76417","-43.39944"
"Belfort","47.64218","6.85385"
"Belgaum","15.85212","74.50447"
"Belgern","51.48263","13.12382"
"Belgioioso","45.15933","9.31347"
"Belgorod","50.61074","36.58015"
"Belgrade","45.77604","-111.1769"
"Belgrano","-34.5627","-58.45829"
"Beli","7.85868","10.97187"
"Beli Manastir","45.77","18.60361"
"Beliātor","23.32052","87.22081"
"Belidzhi","41.89184","48.41247"
"Belinskiy","52.96474","43.41647"
"Belišće","45.68028","18.40583"
"Belize City","17.49952","-88.19756"
"Bell","33.97751","-118.18702"
"Bell Gardens","33.96529","-118.15146"
"Bell Park","-38.10793","144.33839"
"Bell Ville","-32.62591","-62.68873"
"Bella Unión","-30.25966","-57.59919"
"Bella Vista","36.4807","-94.27134"
"Bellair-Meadowbrook Terrace","30.17881","-81.74341"
"Bellaire","40.71399","-73.75402"
"Bellampalli","19.05577","79.493"
"Bellaria-Igea Marina","44.14255","12.47154"
"Bellary","15.14205","76.92398"
"Bellavista","-5.66417","-78.67722"
"Bellbrook","39.63562","-84.07077"
"Belle Chasse","29.85493","-89.99063"
"Belle de Mai","43.31184","5.38541"
"Belle Fourche","44.67137","-103.85215"
"Belle Glade","26.68451","-80.66756"
"Belle Harbor","40.57594","-73.84819"
"Belle Haven","38.78539","-77.06303"
"Belle Isle","28.45834","-81.35924"
"Belle Plaine","44.62274","-93.76857"
"Bellefontaine","40.36116","-83.75966"
"Bellefontaine Neighbors","38.74033","-90.2265"
"Bellefonte","40.91339","-77.77833"
"Bellegarde","43.75329","4.51654"
"Bellegarde-sur-Valserine","46.10787","5.82421"
"Bellerive-sur-Allier","46.11652","3.40406"
"Belleville","40.79371","-74.15014"
"Bellevue","47.61038","-122.20068"
"Bellevue Hill","-33.87899","151.25101"
"Belley","45.75917","5.68813"
"Bellflower","33.88168","-118.11701"
"Bellheim","49.19833","8.27944"
"Bellingham","48.75955","-122.48822"
"Bellinzago Novarese","45.56877","8.64323"
"Bellinzona","46.19278","9.01703"
"Bellizzi","40.61981","14.94685"
"Bellmawr","39.86761","-75.09462"
"Bellmead","31.59405","-97.10889"
"Bellmore","40.66871","-73.52707"
"Bello","6.33732","-75.55795"
"Bells Corners","45.31588","-75.83012"
"Bellshill","55.81667","-4.01667"
"Belluno","46.14262","12.2156"
"Bellūru","12.9814","76.73308"
"Bellusco","45.61958","9.41905"
"Bellview","30.46159","-87.31497"
"Bellwood","41.88142","-87.88312"
"Belm","52.3","8.13333"
"Belmar","40.17845","-74.0218"
"Belmont","37.52021","-122.2758"
"Belmont Cragin","41.9317","-87.76867"
"Belmont North","-33.02081","151.66849"
"Belmonte","-15.86126","-38.87982"
"Belmonte Mezzagno","38.04653","13.39207"
"Belmopan","17.25","-88.76667"
"Belo","6.13333","10.25"
"Belo Horizonte","-19.92083","-43.93778"
"Belo Jardim","-8.33556","-36.42417"
"Belo Oriente","-19.22","-42.48361"
"Belo sur Tsiribihina","-19.69787","44.54587"
"Beloeil","45.56839","-73.20568"
